[{ "_id" : { "$oid" : "58477e40c011636715aa5d4c"} , "geometry" : { "coordinates" : [ -71.08308171777011 , 42.32735538429691] , "type" : "Point"} , "type" : "Feature" , "properties" : { "TOWN" : "BOSTON" , "TOWN_ID" : 35 , "OBJECTID" : 3001 , "STOP_NAME" : "Warren St @ Kearsarge Ave" , "STOP_ID" : 21151}},
{ "_id" : { "$oid" : "58477e40c011636715aa5d4d"} , "geometry" : { "coordinates" : [ -71.08325682872675 , 42.32737818096452] , "type" : "Point"} , "type" : "Feature" , "properties" : { "TOWN" : "BOSTON" , "TOWN_ID" : 35 , "OBJECTID" : 3002 , "STOP_NAME" : "Warren St opp Kearsage Ave" , "STOP_ID" : 399}},
{ "_id" : { "$oid" : "58477e40c011636715aa5d4e"} , "geometry" : { "coordinates" : [ -71.09577544893281 , 42.327532088086635] , "type" : "Point"} , "type" : "Feature" , "properties" : { "TOWN" : "BOSTON" , "TOWN_ID" : 35 , "OBJECTID" : 3003 , "STOP_NAME" : "Centre St @ Cedar St" , "STOP_ID" : 1151}},
{ "_id" : { "$oid" : "58477e40c011636715aa5d4f"} , "geometry" : { "coordinates" : [ -71.06171403022164 , 42.32744942741751] , "type" : "Point"} , "type" : "Feature" , "properties" : { "TOWN" : "BOSTON" , "TOWN_ID" : 35 , "OBJECTID" : 3004 , "STOP_NAME" : "South Bay Mall @ Office Max" , "STOP_ID" : 11242}},
{ "_id" : { "$oid" : "58477e40c011636715aa5d50"} , "geometry" : { "coordinates" : [ -71.06171403022164 , 42.32744942741751] , "type" : "Point"} , "type" : "Feature" , "properties" : { "TOWN" : "BOSTON" , "TOWN_ID" : 35 , "OBJECTID" : 3005 , "STOP_NAME" : "South Bay Mall @ Office Max" , "STOP_ID" : 29051}},
{ "_id" : { "$oid" : "58477e40c011636715aa5d51"} , "geometry" : { "coordinates" : [ -71.11930712407637 , 42.32765894318127] , "type" : "Point"} , "type" : "Feature" , "properties" : { "TOWN" : "BROOKLINE" , "TOWN_ID" : 46 , "OBJECTID" : 3006 , "STOP_NAME" : "High St opp Edgehill Rd" , "STOP_ID" : 1528}},
{ "_id" : { "$oid" : "58477e40c011636715aa5d52"} , "geometry" : { "coordinates" : [ -71.08706849228636 , 42.32762565797677] , "type" : "Point"} , "type" : "Feature" , "properties" : { "TOWN" : "BOSTON" , "TOWN_ID" : 35 , "OBJECTID" : 3007 , "STOP_NAME" : "Washington St @ Bartlett St" , "STOP_ID" : 1178}},
{ "_id" : { "$oid" : "58477e40c011636715aa5d53"} , "geometry" : { "coordinates" : [ -71.07731719220587 , 42.32766414629379] , "type" : "Point"} , "type" : "Feature" , "properties" : { "TOWN" : "BOSTON" , "TOWN_ID" : 35 , "OBJECTID" : 3008 , "STOP_NAME" : "Dudley St @ Adams St" , "STOP_ID" : 1495}},
{ "_id" : { "$oid" : "58477e40c011636715aa5d54"} , "geometry" : { "coordinates" : [ -71.19437777242933 , 42.32807761744804] , "type" : "Point"} , "type" : "Feature" , "properties" : { "TOWN" : "NEWTON" , "TOWN_ID" : 207 , "OBJECTID" : 3009 , "STOP_NAME" : "Cypress St @ Braeland Ave" , "STOP_ID" : 8503}},
{ "_id" : { "$oid" : "58477e40c011636715aa5d55"} , "geometry" : { "coordinates" : [ -71.19437777242933 , 42.32807761744804] , "type" : "Point"} , "type" : "Feature" , "properties" : { "TOWN" : "NEWTON" , "TOWN_ID" : 207 , "OBJECTID" : 3010 , "STOP_NAME" : "Cypress St @ Braeland Ave" , "STOP_ID" : 8529}},
{ "_id" : { "$oid" : "58477e40c011636715aa5d56"} , "geometry" : { "coordinates" : [ -71.09559671292845 , 42.327803017167696] , "type" : "Point"} , "type" : "Feature" , "properties" : { "TOWN" : "BOSTON" , "TOWN_ID" : 35 , "OBJECTID" : 3011 , "STOP_NAME" : "Centre St @ Cedar St" , "STOP_ID" : 1142}},
{ "_id" : { "$oid" : "58477e40c011636715aa5d57"} , "geometry" : { "coordinates" : [ -71.11917574745618 , 42.32789218285178] , "type" : "Point"} , "type" : "Feature" , "properties" : { "TOWN" : "BROOKLINE" , "TOWN_ID" : 46 , "OBJECTID" : 3012 , "STOP_NAME" : "High St @ Cumberland Ave" , "STOP_ID" : 1554}},
{ "_id" : { "$oid" : "58477e40c011636715aa5d58"} , "geometry" : { "coordinates" : [ -71.07752823811519 , 42.32780786210706] , "type" : "Point"} , "type" : "Feature" , "properties" : { "TOWN" : "BOSTON" , "TOWN_ID" : 35 , "OBJECTID" : 3013 , "STOP_NAME" : "Dudley St @ Adams St" , "STOP_ID" : 1488}},
{ "_id" : { "$oid" : "58477e40c011636715aa5d59"} , "geometry" : { "coordinates" : [ -71.09720448493269 , 42.32803500800862] , "type" : "Point"} , "type" : "Feature" , "properties" : { "TOWN" : "BOSTON" , "TOWN_ID" : 35 , "OBJECTID" : 3014 , "STOP_NAME" : "Columbus Ave @ New Cedar St" , "STOP_ID" : 1260}},
{ "_id" : { "$oid" : "58477e40c011636715aa5d5a"} , "geometry" : { "coordinates" : [ -71.097055391789 , 42.32804623432391] , "type" : "Point"} , "type" : "Feature" , "properties" : { "TOWN" : "BOSTON" , "TOWN_ID" : 35 , "OBJECTID" : 3015 , "STOP_NAME" : "Columbus Ave @ Cedar St" , "STOP_ID" : 1221}},
{ "_id" : { "$oid" : "58477e40c011636715aa5d5b"} , "geometry" : { "coordinates" : [ -71.06783167499368 , 42.327944478034965] , "type" : "Point"} , "type" : "Feature" , "properties" : { "TOWN" : "BOSTON" , "TOWN_ID" : 35 , "OBJECTID" : 3016 , "STOP_NAME" : "1010 Massachusetts Ave opp Magazine St" , "STOP_ID" : 128}},
{ "_id" : { "$oid" : "58477e40c011636715aa5d5c"} , "geometry" : { "coordinates" : [ -71.0579127620936 , 42.32805756384082] , "type" : "Point"} , "type" : "Feature" , "properties" : { "TOWN" : "BOSTON" , "TOWN_ID" : 35 , "OBJECTID" : 3017 , "STOP_NAME" : "Boston St @ Fr Songin Way" , "STOP_ID" : 12940}},
{ "_id" : { "$oid" : "58477e40c011636715aa5d5d"} , "geometry" : { "coordinates" : [ -71.0679685498117 , 42.32810844673964] , "type" : "Point"} , "type" : "Feature" , "properties" : { "TOWN" : "BOSTON" , "TOWN_ID" : 35 , "OBJECTID" : 3018 , "STOP_NAME" : "Massachusetts Ave @ Magazine St" , "STOP_ID" : 30009}},
{ "_id" : { "$oid" : "58477e40c011636715aa5d5e"} , "geometry" : { "coordinates" : [ -71.11022973483959 , 42.32830267763607] , "type" : "Point"} , "type" : "Feature" , "properties" : { "TOWN" : "BOSTON" , "TOWN_ID" : 35 , "OBJECTID" : 3019 , "STOP_NAME" : "Heath St @ S Huntington Ave" , "STOP_ID" : 1761}},
{ "_id" : { "$oid" : "58477e40c011636715aa5d5f"} , "geometry" : { "coordinates" : [ -71.12585061097315 , 42.3284086660799] , "type" : "Point"} , "type" : "Feature" , "properties" : { "TOWN" : "BROOKLINE" , "TOWN_ID" : 46 , "OBJECTID" : 3020 , "STOP_NAME" : "Cypress St @ Walnut St" , "STOP_ID" : 1532}},
{ "_id" : { "$oid" : "58477e40c011636715aa5d60"} , "geometry" : { "coordinates" : [ -71.11071484520241 , 42.32849113071114] , "type" : "Point"} , "type" : "Feature" , "properties" : { "TOWN" : "BOSTON" , "TOWN_ID" : 35 , "OBJECTID" : 3021 , "STOP_NAME" : "S Huntington Ave @ Heath St" , "STOP_ID" : 6574}},
{ "_id" : { "$oid" : "58477e40c011636715aa5d61"} , "geometry" : { "coordinates" : [ -71.12601061432218 , 42.328628668353616] , "type" : "Point"} , "type" : "Feature" , "properties" : { "TOWN" : "BROOKLINE" , "TOWN_ID" : 46 , "OBJECTID" : 3022 , "STOP_NAME" : "Cypress St @ Walnut" , "STOP_ID" : 1549}},
{ "_id" : { "$oid" : "58477e40c011636715aa5d62"} , "geometry" : { "coordinates" : [ -71.08101888409145 , 42.32850272909647] , "type" : "Point"} , "type" : "Feature" , "properties" : { "TOWN" : "BOSTON" , "TOWN_ID" : 35 , "OBJECTID" : 3023 , "STOP_NAME" : "Dudley St @ Greenville St" , "STOP_ID" : 1493}},
{ "_id" : { "$oid" : "58477e40c011636715aa5d63"} , "geometry" : { "coordinates" : [ -71.07913980919965 , 42.328498322572614] , "type" : "Point"} , "type" : "Feature" , "properties" : { "TOWN" : "BOSTON" , "TOWN_ID" : 35 , "OBJECTID" : 3024 , "STOP_NAME" : "Dudley St @ Dearborn St" , "STOP_ID" : 1489}},
{ "_id" : { "$oid" : "58477e40c011636715aa5d64"} , "geometry" : { "coordinates" : [ -71.05771179755216 , 42.32845498663728] , "type" : "Point"} , "type" : "Feature" , "properties" : { "TOWN" : "BOSTON" , "TOWN_ID" : 35 , "OBJECTID" : 3025 , "STOP_NAME" : "Boston St @ Ellery St" , "STOP_ID" : 2905}},
{ "_id" : { "$oid" : "58477e40c011636715aa5d65"} , "geometry" : { "coordinates" : [ -71.0525881608266 , 42.32846368180652] , "type" : "Point"} , "type" : "Feature" , "properties" : { "TOWN" : "BOSTON" , "TOWN_ID" : 35 , "OBJECTID" : 3026 , "STOP_NAME" : "Old Colony Ave @ McDonough Way" , "STOP_ID" : 35201}},
{ "_id" : { "$oid" : "58477e40c011636715aa5d66"} , "geometry" : { "coordinates" : [ -71.09505136907438 , 42.32862720784286] , "type" : "Point"} , "type" : "Feature" , "properties" : { "TOWN" : "BOSTON" , "TOWN_ID" : 35 , "OBJECTID" : 3027 , "STOP_NAME" : "Centre St @ Linwood St" , "STOP_ID" : 1143}},
{ "_id" : { "$oid" : "58477e40c011636715aa5d67"} , "geometry" : { "coordinates" : [ -71.08297095893133 , 42.32862863504634] , "type" : "Point"} , "type" : "Feature" , "properties" : { "TOWN" : "BOSTON" , "TOWN_ID" : 35 , "OBJECTID" : 3028 , "STOP_NAME" : "Dudley St @ Warren St" , "STOP_ID" : 1491}},
{ "_id" : { "$oid" : "58477e40c011636715aa5d68"} , "geometry" : { "coordinates" : [ -71.13265858726409 , 42.328810672203055] , "type" : "Point"} , "type" : "Feature" , "properties" : { "TOWN" : "BROOKLINE" , "TOWN_ID" : 46 , "OBJECTID" : 3029 , "STOP_NAME" : "Boylston St @ Warren St" , "STOP_ID" : 1546}},
{ "_id" : { "$oid" : "58477e40c011636715aa5d69"} , "geometry" : { "coordinates" : [ -71.1327586633316 , 42.328934029591984] , "type" : "Point"} , "type" : "Feature" , "properties" : { "TOWN" : "BROOKLINE" , "TOWN_ID" : 46 , "OBJECTID" : 3030 , "STOP_NAME" : "Boylston St @ Sumner Rd" , "STOP_ID" : 1534}},
{ "_id" : { "$oid" : "58477e40c011636715aa5d6a"} , "geometry" : { "coordinates" : [ -71.20650559104695 , 42.329176863306955] , "type" : "Point"} , "type" : "Feature" , "properties" : { "TOWN" : "NEWTON" , "TOWN_ID" : 207 , "OBJECTID" : 3031 , "STOP_NAME" : "940 Walnut St" , "STOP_ID" : 81562}},
{ "_id" : { "$oid" : "58477e40c011636715aa5d6b"} , "geometry" : { "coordinates" : [ -71.08618526037165 , 42.32903840671846] , "type" : "Point"} , "type" : "Feature" , "properties" : { "TOWN" : "BOSTON" , "TOWN_ID" : 35 , "OBJECTID" : 3032 , "STOP_NAME" : "Dudley St @ Shawmut Ave" , "STOP_ID" : 1147}},
{ "_id" : { "$oid" : "58477e40c011636715aa5d6c"} , "geometry" : { "coordinates" : [ -71.11097624846455 , 42.32939327378158] , "type" : "Point"} , "type" : "Feature" , "properties" : { "TOWN" : "BOSTON" , "TOWN_ID" : 35 , "OBJECTID" : 3033 , "STOP_NAME" : "105 S Huntington Ave" , "STOP_ID" : 22365}},
{ "_id" : { "$oid" : "58477e40c011636715aa5d6d"} , "geometry" : { "coordinates" : [ -71.11097624846455 , 42.32939327378158] , "type" : "Point"} , "type" : "Feature" , "properties" : { "TOWN" : "BOSTON" , "TOWN_ID" : 35 , "OBJECTID" : 3034 , "STOP_NAME" : "100 S Huntington Ave" , "STOP_ID" : 65741}},
{ "_id" : { "$oid" : "58477e40c011636715aa5d6e"} , "geometry" : { "coordinates" : [ -71.12607288743398 , 42.32947821471879] , "type" : "Point"} , "type" : "Feature" , "properties" : { "TOWN" : "BROOKLINE" , "TOWN_ID" : 46 , "OBJECTID" : 3035 , "STOP_NAME" : "Cypress St @ Milton Rd" , "STOP_ID" : 1548}},
{ "_id" : { "$oid" : "58477e40c011636715aa5d6f"} , "geometry" : { "coordinates" : [ -71.0940518244152 , 42.329379927189436] , "type" : "Point"} , "type" : "Feature" , "properties" : { "TOWN" : "BOSTON" , "TOWN_ID" : 35 , "OBJECTID" : 3036 , "STOP_NAME" : "Centre St @ Gardner St" , "STOP_ID" : 1150}},
{ "_id" : { "$oid" : "58477e40c011636715aa5d70"} , "geometry" : { "coordinates" : [ -71.05537404866197 , 42.32929170057596] , "type" : "Point"} , "type" : "Feature" , "properties" : { "TOWN" : "BOSTON" , "TOWN_ID" : 35 , "OBJECTID" : 3037 , "STOP_NAME" : "Preble St @ Rogers St" , "STOP_ID" : 15201}},
{ "_id" : { "$oid" : "58477e40c011636715aa5d71"} , "geometry" : { "coordinates" : [ -71.05299638414064 , 42.329304700510285] , "type" : "Point"} , "type" : "Feature" , "properties" : { "TOWN" : "BOSTON" , "TOWN_ID" : 35 , "OBJECTID" : 3038 , "STOP_NAME" : "Preble St @ Vinton St" , "STOP_ID" : 25202}},
{ "_id" : { "$oid" : "58477e40c011636715aa5d72"} , "geometry" : { "coordinates" : [ -71.05299638414064 , 42.329304700510285] , "type" : "Point"} , "type" : "Feature" , "properties" : { "TOWN" : "BOSTON" , "TOWN_ID" : 35 , "OBJECTID" : 3039 , "STOP_NAME" : "Preble St @ Old Colony Ave" , "STOP_ID" : 5201}},
{ "_id" : { "$oid" : "58477e40c011636715aa5d73"} , "geometry" : { "coordinates" : [ -71.12847723056736 , 42.32959415736708] , "type" : "Point"} , "type" : "Feature" , "properties" : { "TOWN" : "BROOKLINE" , "TOWN_ID" : 46 , "OBJECTID" : 3040 , "STOP_NAME" : "Boylston St @ Kennard Rd" , "STOP_ID" : 1547}},
{ "_id" : { "$oid" : "58477e40c011636715aa5d74"} , "geometry" : { "coordinates" : [ -71.08910831515857 , 42.329465093163776] , "type" : "Point"} , "type" : "Feature" , "properties" : { "TOWN" : "BOSTON" , "TOWN_ID" : 35 , "OBJECTID" : 3041 , "STOP_NAME" : "42 Dudley St" , "STOP_ID" : 1146}},
{ "_id" : { "$oid" : "58477e40c011636715aa5d75"} , "geometry" : { "coordinates" : [ -71.12856061247582 , 42.329658664524544] , "type" : "Point"} , "type" : "Feature" , "properties" : { "TOWN" : "BROOKLINE" , "TOWN_ID" : 46 , "OBJECTID" : 3042 , "STOP_NAME" : "Boylston St @ Clark Rd" , "STOP_ID" : 1533}},
{ "_id" : { "$oid" : "58477e40c011636715aa5d76"} , "geometry" : { "coordinates" : [ -71.19486878469998 , 42.329861166241535] , "type" : "Point"} , "type" : "Feature" , "properties" : { "TOWN" : "NEWTON" , "TOWN_ID" : 207 , "OBJECTID" : 3043 , "STOP_NAME" : "Centre St @ Beacon St" , "STOP_ID" : 8528}},
{ "_id" : { "$oid" : "58477e40c011636715aa5d77"} , "geometry" : { "coordinates" : [ -71.08614962922863 , 42.329534909115544] , "type" : "Point"} , "type" : "Feature" , "properties" : { "TOWN" : "BOSTON" , "TOWN_ID" : 35 , "OBJECTID" : 3044 , "STOP_NAME" : "Malcolm X Blvd @ Shawmut Ave" , "STOP_ID" : 11259}},
{ "_id" : { "$oid" : "58477e40c011636715aa5d78"} , "geometry" : { "coordinates" : [ -71.05683867698582 , 42.329492163380635] , "type" : "Point"} , "type" : "Feature" , "properties" : { "TOWN" : "BOSTON" , "TOWN_ID" : 35 , "OBJECTID" : 3045 , "STOP_NAME" : "Preble St @ Dorchester Ave" , "STOP_ID" : 35202}},
{ "_id" : { "$oid" : "58477e40c011636715aa5d79"} , "geometry" : { "coordinates" : [ -71.08615429543202 , 42.32966446396196] , "type" : "Point"} , "type" : "Feature" , "properties" : { "TOWN" : "BOSTON" , "TOWN_ID" : 35 , "OBJECTID" : 3046 , "STOP_NAME" : "Malcolm X Blvd @ Shawmut Ave" , "STOP_ID" : 1148}},
{ "_id" : { "$oid" : "58477e40c011636715aa5d7a"} , "geometry" : { "coordinates" : [ -71.09231622137958 , 42.333013071041385] , "type" : "Point"} , "type" : "Feature" , "properties" : { "TOWN" : "BOSTON" , "TOWN_ID" : 35 , "OBJECTID" : 3047 , "STOP_NAME" : "Tremont St @ Prentiss St" , "STOP_ID" : 1257}},
{ "_id" : { "$oid" : "58477e40c011636715aa5d7b"} , "geometry" : { "coordinates" : [ -71.08112461561457 , 42.33302296377376] , "type" : "Point"} , "type" : "Feature" , "properties" : { "TOWN" : "BOSTON" , "TOWN_ID" : 35 , "OBJECTID" : 3048 , "STOP_NAME" : "Melnea Cass Blvd @ Washington St" , "STOP_ID" : 7}},
{ "_id" : { "$oid" : "58477e40c011636715aa5d7c"} , "geometry" : { "coordinates" : [ -71.0808693657121 , 42.333049672486155] , "type" : "Point"} , "type" : "Feature" , "properties" : { "TOWN" : "BOSTON" , "TOWN_ID" : 35 , "OBJECTID" : 3049 , "STOP_NAME" : "Washington St @ Melnea Cass Blvd - Silver Line" , "STOP_ID" : 3}},
{ "_id" : { "$oid" : "58477e40c011636715aa5d7d"} , "geometry" : { "coordinates" : [ -71.1934688437466 , 42.333441988036576] , "type" : "Point"} , "type" : "Feature" , "properties" : { "TOWN" : "NEWTON" , "TOWN_ID" : 207 , "OBJECTID" : 3050 , "STOP_NAME" : "Centre St @ Bowen St" , "STOP_ID" : 8527}},
{ "_id" : { "$oid" : "58477e40c011636715aa5d7e"} , "geometry" : { "coordinates" : [ -71.10970607648407 , 42.333191377705056] , "type" : "Point"} , "type" : "Feature" , "properties" : { "TOWN" : "BOSTON" , "TOWN_ID" : 35 , "OBJECTID" : 3051 , "STOP_NAME" : "Huntington Ave @ Parker Hill Ave" , "STOP_ID" : 1315}},
{ "_id" : { "$oid" : "58477e40c011636715aa5d7f"} , "geometry" : { "coordinates" : [ -71.19346779951236 , 42.333447396892396] , "type" : "Point"} , "type" : "Feature" , "properties" : { "TOWN" : "NEWTON" , "TOWN_ID" : 207 , "OBJECTID" : 3052 , "STOP_NAME" : "Centre St @ Gibbs St" , "STOP_ID" : 8506}},
{ "_id" : { "$oid" : "58477e40c011636715aa5d80"} , "geometry" : { "coordinates" : [ -71.20781756393615 , 42.33352123423386] , "type" : "Point"} , "type" : "Feature" , "properties" : { "TOWN" : "NEWTON" , "TOWN_ID" : 207 , "OBJECTID" : 3053 , "STOP_NAME" : "796 Walnut St" , "STOP_ID" : 8159}},
{ "_id" : { "$oid" : "58477e40c011636715aa5d81"} , "geometry" : { "coordinates" : [ -71.20781756393615 , 42.33352123423386] , "type" : "Point"} , "type" : "Feature" , "properties" : { "TOWN" : "NEWTON" , "TOWN_ID" : 207 , "OBJECTID" : 3054 , "STOP_NAME" : "791 Walnut St" , "STOP_ID" : 8198}},
{ "_id" : { "$oid" : "58477e40c011636715aa5d82"} , "geometry" : { "coordinates" : [ -71.10927590576749 , 42.33323776703353] , "type" : "Point"} , "type" : "Feature" , "properties" : { "TOWN" : "BOSTON" , "TOWN_ID" : 35 , "OBJECTID" : 3055 , "STOP_NAME" : "835 Huntington Ave opp Parker Hill Ave" , "STOP_ID" : 1365}},
{ "_id" : { "$oid" : "58477e40c011636715aa5d83"} , "geometry" : { "coordinates" : [ -71.11875209733893 , 42.333271665448024] , "type" : "Point"} , "type" : "Feature" , "properties" : { "TOWN" : "BROOKLINE" , "TOWN_ID" : 46 , "OBJECTID" : 3056 , "STOP_NAME" : "Harvard St @ Kent St" , "STOP_ID" : 1367}},
{ "_id" : { "$oid" : "58477e40c011636715aa5d84"} , "geometry" : { "coordinates" : [ -71.08596642018327 , 42.333231849650616] , "type" : "Point"} , "type" : "Feature" , "properties" : { "TOWN" : "BOSTON" , "TOWN_ID" : 35 , "OBJECTID" : 3057 , "STOP_NAME" : "Ruggles St opp Kerr Way" , "STOP_ID" : 11593}},
{ "_id" : { "$oid" : "58477e40c011636715aa5d85"} , "geometry" : { "coordinates" : [ -71.02510542020134 , 42.33305428974943] , "type" : "Point"} , "type" : "Feature" , "properties" : { "TOWN" : "BOSTON" , "TOWN_ID" : 35 , "OBJECTID" : 3058 , "STOP_NAME" : "Columbia Rd @ Farragut Rd" , "STOP_ID" : 30270}},
{ "_id" : { "$oid" : "58477e40c011636715aa5d86"} , "geometry" : { "coordinates" : [ -71.0733634333396 , 42.333405932939044] , "type" : "Point"} , "type" : "Feature" , "properties" : { "TOWN" : "BOSTON" , "TOWN_ID" : 35 , "OBJECTID" : 3059 , "STOP_NAME" : "Massachusetts Ave @ Albany St" , "STOP_ID" : 855}},
{ "_id" : { "$oid" : "58477e40c011636715aa5d87"} , "geometry" : { "coordinates" : [ -71.0772004644853 , 42.33349502500631] , "type" : "Point"} , "type" : "Feature" , "properties" : { "TOWN" : "BOSTON" , "TOWN_ID" : 35 , "OBJECTID" : 3060 , "STOP_NAME" : "Harrison Ave @ E Lenox St" , "STOP_ID" : 1791}},
{ "_id" : { "$oid" : "58477e40c011636715aa5d88"} , "geometry" : { "coordinates" : [ -71.07360381596679 , 42.33359452277287] , "type" : "Point"} , "type" : "Feature" , "properties" : { "TOWN" : "BOSTON" , "TOWN_ID" : 35 , "OBJECTID" : 3061 , "STOP_NAME" : "Massachusetts Ave @ Albany St" , "STOP_ID" : 856}},
{ "_id" : { "$oid" : "58477e40c011636715aa5d89"} , "geometry" : { "coordinates" : [ -71.10571320199509 , 42.3337322277093] , "type" : "Point"} , "type" : "Feature" , "properties" : { "TOWN" : "BOSTON" , "TOWN_ID" : 35 , "OBJECTID" : 3062 , "STOP_NAME" : "Huntington Ave @ Fenwood Rd" , "STOP_ID" : 1363}},
{ "_id" : { "$oid" : "58477e40c011636715aa5d8a"} , "geometry" : { "coordinates" : [ -71.10561710571237 , 42.33378532238393] , "type" : "Point"} , "type" : "Feature" , "properties" : { "TOWN" : "BOSTON" , "TOWN_ID" : 35 , "OBJECTID" : 3063 , "STOP_NAME" : "Huntington Ave opp Fenwood Rd" , "STOP_ID" : 1317}},
{ "_id" : { "$oid" : "58477e40c011636715aa5d8b"} , "geometry" : { "coordinates" : [ -71.04955859232587 , 42.33361860428373] , "type" : "Point"} , "type" : "Feature" , "properties" : { "TOWN" : "BOSTON" , "TOWN_ID" : 35 , "OBJECTID" : 3064 , "STOP_NAME" : "180 Dorchester St opp W 7th St" , "STOP_ID" : 18}},
{ "_id" : { "$oid" : "58477e40c011636715aa5d8c"} , "geometry" : { "coordinates" : [ -71.1037833960318 , 42.33383144835272] , "type" : "Point"} , "type" : "Feature" , "properties" : { "TOWN" : "BOSTON" , "TOWN_ID" : 35 , "OBJECTID" : 3065 , "STOP_NAME" : "Tremont St opp Wigglesworth St" , "STOP_ID" : 1319}},
{ "_id" : { "$oid" : "58477e40c011636715aa5d8d"} , "geometry" : { "coordinates" : [ -71.1037833960318 , 42.33383144835272] , "type" : "Point"} , "type" : "Feature" , "properties" : { "TOWN" : "BOSTON" , "TOWN_ID" : 35 , "OBJECTID" : 3066 , "STOP_NAME" : "Tremont St @ Huntington Ave" , "STOP_ID" : 1362}},
{ "_id" : { "$oid" : "58477e40c011636715aa5d8e"} , "geometry" : { "coordinates" : [ -71.04985519189587 , 42.33367493529639] , "type" : "Point"} , "type" : "Feature" , "properties" : { "TOWN" : "BOSTON" , "TOWN_ID" : 35 , "OBJECTID" : 3067 , "STOP_NAME" : "W 7th St @ Dorchester St" , "STOP_ID" : 256}},
{ "_id" : { "$oid" : "58477e40c011636715aa5d8f"} , "geometry" : { "coordinates" : [ -71.07359081046394 , 42.33379427877549] , "type" : "Point"} , "type" : "Feature" , "properties" : { "TOWN" : "BOSTON" , "TOWN_ID" : 35 , "OBJECTID" : 3068 , "STOP_NAME" : "Massachusetts Ave @ Albany St" , "STOP_ID" : 57}},
{ "_id" : { "$oid" : "58477e40c011636715aa5d90"} , "geometry" : { "coordinates" : [ -71.08711905966486 , 42.333905037086375] , "type" : "Point"} , "type" : "Feature" , "properties" : { "TOWN" : "BOSTON" , "TOWN_ID" : 35 , "OBJECTID" : 3069 , "STOP_NAME" : "Ruggles St @ Cabot St" , "STOP_ID" : 11592}},
{ "_id" : { "$oid" : "58477e40c011636715aa5d91"} , "geometry" : { "coordinates" : [ -71.04917222540068 , 42.33380009746754] , "type" : "Point"} , "type" : "Feature" , "properties" : { "TOWN" : "BOSTON" , "TOWN_ID" : 35 , "OBJECTID" : 3070 , "STOP_NAME" : "Dorchester St @ Mercer St" , "STOP_ID" : 287}},
{ "_id" : { "$oid" : "58477e40c011636715aa5d92"} , "geometry" : { "coordinates" : [ -71.04873068710471 , 42.33409613624917] , "type" : "Point"} , "type" : "Feature" , "properties" : { "TOWN" : "BOSTON" , "TOWN_ID" : 35 , "OBJECTID" : 3071 , "STOP_NAME" : "Dorchester St @ W 6th St" , "STOP_ID" : 48}},
{ "_id" : { "$oid" : "58477e40c011636715aa5d93"} , "geometry" : { "coordinates" : [ -71.0489255046008 , 42.334166583741975] , "type" : "Point"} , "type" : "Feature" , "properties" : { "TOWN" : "BOSTON" , "TOWN_ID" : 35 , "OBJECTID" : 3072 , "STOP_NAME" : "W 6th S @ Dorchester St" , "STOP_ID" : 30287}},
{ "_id" : { "$oid" : "58477e40c011636715aa5d94"} , "geometry" : { "coordinates" : [ -71.02714231175277 , 42.33408368373665] , "type" : "Point"} , "type" : "Feature" , "properties" : { "TOWN" : "BOSTON" , "TOWN_ID" : 35 , "OBJECTID" : 3073 , "STOP_NAME" : "P St @ E 5th St" , "STOP_ID" : 295}},
{ "_id" : { "$oid" : "58477e40c011636715aa5d95"} , "geometry" : { "coordinates" : [ -71.05084284420013 , 42.33429734405295] , "type" : "Point"} , "type" : "Feature" , "properties" : { "TOWN" : "BOSTON" , "TOWN_ID" : 35 , "OBJECTID" : 3074 , "STOP_NAME" : "W 7th St @ F St" , "STOP_ID" : 255}},
{ "_id" : { "$oid" : "58477e40c011636715aa5d96"} , "geometry" : { "coordinates" : [ -71.07227634118749 , 42.33438252253157] , "type" : "Point"} , "type" : "Feature" , "properties" : { "TOWN" : "BOSTON" , "TOWN_ID" : 35 , "OBJECTID" : 3075 , "STOP_NAME" : "Albany St opp Boston Medical" , "STOP_ID" : 10014}},
{ "_id" : { "$oid" : "58477e40c011636715aa5d97"} , "geometry" : { "coordinates" : [ -71.07227634118749 , 42.33438252253157] , "type" : "Point"} , "type" : "Feature" , "properties" : { "TOWN" : "BOSTON" , "TOWN_ID" : 35 , "OBJECTID" : 3076 , "STOP_NAME" : "Albany St @ Boston Medical Ctr" , "STOP_ID" : 25089}},
{ "_id" : { "$oid" : "58477e40c011636715aa5d98"} , "geometry" : { "coordinates" : [ -71.12284080370226 , 42.334584810786126] , "type" : "Point"} , "type" : "Feature" , "properties" : { "TOWN" : "BROOKLINE" , "TOWN_ID" : 46 , "OBJECTID" : 3077 , "STOP_NAME" : "Washington St @ Cypress St" , "STOP_ID" : 1282}},
{ "_id" : { "$oid" : "58477e40c011636715aa5d99"} , "geometry" : { "coordinates" : [ -71.02502965347834 , 42.33423305327308] , "type" : "Point"} , "type" : "Feature" , "properties" : { "TOWN" : "BOSTON" , "TOWN_ID" : 35 , "OBJECTID" : 3078 , "STOP_NAME" : "Farragut Rd opp E Fifth St" , "STOP_ID" : 30271}},
{ "_id" : { "$oid" : "58477e40c011636715aa5d9a"} , "geometry" : { "coordinates" : [ -71.12316061516222 , 42.33467866707522] , "type" : "Point"} , "type" : "Feature" , "properties" : { "TOWN" : "BROOKLINE" , "TOWN_ID" : 46 , "OBJECTID" : 3079 , "STOP_NAME" : "Washington St @ School St" , "STOP_ID" : 1287}},
{ "_id" : { "$oid" : "58477e40c011636715aa5d9b"} , "geometry" : { "coordinates" : [ -71.04769179681799 , 42.334520794327936] , "type" : "Point"} , "type" : "Feature" , "properties" : { "TOWN" : "BOSTON" , "TOWN_ID" : 35 , "OBJECTID" : 3080 , "STOP_NAME" : "Dorchester St @ W 5th St" , "STOP_ID" : 47}},
{ "_id" : { "$oid" : "58477e40c011636715aa5d9c"} , "geometry" : { "coordinates" : [ -71.1116356621485 , 42.334801994098214] , "type" : "Point"} , "type" : "Feature" , "properties" : { "TOWN" : "BROOKLINE" , "TOWN_ID" : 46 , "OBJECTID" : 3081 , "STOP_NAME" : "Brookline Ave @ Aspinwall Ave" , "STOP_ID" : 1524}},
{ "_id" : { "$oid" : "58477e40c011636715aa5d9d"} , "geometry" : { "coordinates" : [ -71.04756868865209 , 42.33457889937431] , "type" : "Point"} , "type" : "Feature" , "properties" : { "TOWN" : "BOSTON" , "TOWN_ID" : 35 , "OBJECTID" : 3082 , "STOP_NAME" : "Dorchester St @ Old Harbor St" , "STOP_ID" : 19}},
{ "_id" : { "$oid" : "58477e40c011636715aa5d9e"} , "geometry" : { "coordinates" : [ -71.08840777888746 , 42.334746431116265] , "type" : "Point"} , "type" : "Feature" , "properties" : { "TOWN" : "BOSTON" , "TOWN_ID" : 35 , "OBJECTID" : 3083 , "STOP_NAME" : "Ruggles St @ Tremont St" , "STOP_ID" : 1592}},
{ "_id" : { "$oid" : "58477e40c011636715aa5d9f"} , "geometry" : { "coordinates" : [ -71.11158206993753 , 42.33485401651641] , "type" : "Point"} , "type" : "Feature" , "properties" : { "TOWN" : "BROOKLINE" , "TOWN_ID" : 46 , "OBJECTID" : 3084 , "STOP_NAME" : "Brookline Ave opp Aspinwall Ave" , "STOP_ID" : 1557}},
{ "_id" : { "$oid" : "58477e40c011636715aa5da0"} , "geometry" : { "coordinates" : [ -71.14897361812231 , 42.33498866802683] , "type" : "Point"} , "type" : "Feature" , "properties" : { "TOWN" : "BROOKLINE" , "TOWN_ID" : 46 , "OBJECTID" : 3085 , "STOP_NAME" : "Chestnut Hill Ave @ Reservoir Busway" , "STOP_ID" : 21917}},
{ "_id" : { "$oid" : "58477e40c011636715aa5da1"} , "geometry" : { "coordinates" : [ -71.08871861065055 , 42.33479199735474] , "type" : "Point"} , "type" : "Feature" , "properties" : { "TOWN" : "BOSTON" , "TOWN_ID" : 35 , "OBJECTID" : 3086 , "STOP_NAME" : "Tremont St @ Ruggles St" , "STOP_ID" : 1226}},
{ "_id" : { "$oid" : "58477e40c011636715aa5da2"} , "geometry" : { "coordinates" : [ -71.08445005436879 , 42.334778524376965] , "type" : "Point"} , "type" : "Feature" , "properties" : { "TOWN" : "BOSTON" , "TOWN_ID" : 35 , "OBJECTID" : 3087 , "STOP_NAME" : "Melnea Cass Blvd @ Kerr Way" , "STOP_ID" : 11}},
{ "_id" : { "$oid" : "58477e40c011636715aa5da3"} , "geometry" : { "coordinates" : [ -71.10273493848143 , 42.3348886545815] , "type" : "Point"} , "type" : "Feature" , "properties" : { "TOWN" : "BOSTON" , "TOWN_ID" : 35 , "OBJECTID" : 3088 , "STOP_NAME" : "Huntington Ave @ Wigglesworth St" , "STOP_ID" : 21317}},
{ "_id" : { "$oid" : "58477e40c011636715aa5da4"} , "geometry" : { "coordinates" : [ -71.07501971678913 , 42.334807767648456] , "type" : "Point"} , "type" : "Feature" , "properties" : { "TOWN" : "BOSTON" , "TOWN_ID" : 35 , "OBJECTID" : 3089 , "STOP_NAME" : "Massachusetts Ave @ Harrison Ave" , "STOP_ID" : 854}},
{ "_id" : { "$oid" : "58477e40c011636715aa5da5"} , "geometry" : { "coordinates" : [ -71.04993296348518 , 42.33481902091057] , "type" : "Point"} , "type" : "Feature" , "properties" : { "TOWN" : "BOSTON" , "TOWN_ID" : 35 , "OBJECTID" : 3090 , "STOP_NAME" : "W 6th St @ F St" , "STOP_ID" : 288}},
{ "_id" : { "$oid" : "58477e40c011636715aa5da6"} , "geometry" : { "coordinates" : [ -71.07495285328794 , 42.33493370664353] , "type" : "Point"} , "type" : "Feature" , "properties" : { "TOWN" : "BOSTON" , "TOWN_ID" : 35 , "OBJECTID" : 3091 , "STOP_NAME" : "Massachusetts Ave @ Harrison Ave" , "STOP_ID" : 58}},
{ "_id" : { "$oid" : "58477e40c011636715aa5da7"} , "geometry" : { "coordinates" : [ -71.07891069256762 , 42.33497641395216] , "type" : "Point"} , "type" : "Feature" , "properties" : { "TOWN" : "BOSTON" , "TOWN_ID" : 35 , "OBJECTID" : 3092 , "STOP_NAME" : "Washington St @ Lenox St" , "STOP_ID" : 60}},
{ "_id" : { "$oid" : "58477e40c011636715aa5da8"} , "geometry" : { "coordinates" : [ -71.10269950495353 , 42.33506439539424] , "type" : "Point"} , "type" : "Feature" , "properties" : { "TOWN" : "BOSTON" , "TOWN_ID" : 35 , "OBJECTID" : 3093 , "STOP_NAME" : "677 Huntington Ave" , "STOP_ID" : 92391}},
{ "_id" : { "$oid" : "58477e40c011636715aa5da9"} , "geometry" : { "coordinates" : [ -71.12467061511849 , 42.33520866978047] , "type" : "Point"} , "type" : "Feature" , "properties" : { "TOWN" : "BROOKLINE" , "TOWN_ID" : 46 , "OBJECTID" : 3094 , "STOP_NAME" : "Washington St @ Greenough Circle" , "STOP_ID" : 1281}},
{ "_id" : { "$oid" : "58477e40c011636715aa5daa"} , "geometry" : { "coordinates" : [ -71.12467061511849 , 42.33520866978047] , "type" : "Point"} , "type" : "Feature" , "properties" : { "TOWN" : "BROOKLINE" , "TOWN_ID" : 46 , "OBJECTID" : 3095 , "STOP_NAME" : "Washington St opp Greenough St" , "STOP_ID" : 1288}},
{ "_id" : { "$oid" : "58477e40c011636715aa5dab"} , "geometry" : { "coordinates" : [ -71.07134296634601 , 42.33506208801125] , "type" : "Point"} , "type" : "Feature" , "properties" : { "TOWN" : "BOSTON" , "TOWN_ID" : 35 , "OBJECTID" : 3096 , "STOP_NAME" : "Albany St opp E Concord St" , "STOP_ID" : 10005}},
{ "_id" : { "$oid" : "58477e40c011636715aa5dac"} , "geometry" : { "coordinates" : [ -71.0786520757582 , 42.335186361242265] , "type" : "Point"} , "type" : "Feature" , "properties" : { "TOWN" : "BOSTON" , "TOWN_ID" : 35 , "OBJECTID" : 3097 , "STOP_NAME" : "Washington St @ Lenox St" , "STOP_ID" : 4}},
{ "_id" : { "$oid" : "58477e40c011636715aa5dad"} , "geometry" : { "coordinates" : [ -71.08812097881177 , 42.33523268800519] , "type" : "Point"} , "type" : "Feature" , "properties" : { "TOWN" : "BOSTON" , "TOWN_ID" : 35 , "OBJECTID" : 3098 , "STOP_NAME" : "Tremont St @ Columbus Ave" , "STOP_ID" : 1255}},
{ "_id" : { "$oid" : "58477e40c011636715aa5dae"} , "geometry" : { "coordinates" : [ -71.05238909511763 , 42.33530164358026] , "type" : "Point"} , "type" : "Feature" , "properties" : { "TOWN" : "BOSTON" , "TOWN_ID" : 35 , "OBJECTID" : 3099 , "STOP_NAME" : "W 7th St @ E St" , "STOP_ID" : 254}},
{ "_id" : { "$oid" : "58477e40c011636715aa5daf"} , "geometry" : { "coordinates" : [ -71.19334019033892 , 42.33584967380522] , "type" : "Point"} , "type" : "Feature" , "properties" : { "TOWN" : "NEWTON" , "TOWN_ID" : 207 , "OBJECTID" : 3100 , "STOP_NAME" : "Centre St @ Commonwealth Ave" , "STOP_ID" : 8507}},
{ "_id" : { "$oid" : "58477e40c011636715aa5db0"} , "geometry" : { "coordinates" : [ -71.19334019033892 , 42.33584967380522] , "type" : "Point"} , "type" : "Feature" , "properties" : { "TOWN" : "NEWTON" , "TOWN_ID" : 207 , "OBJECTID" : 3101 , "STOP_NAME" : "Centre St @ Commonwealth Ave" , "STOP_ID" : 8526}},
{ "_id" : { "$oid" : "58477e40c011636715aa5db1"} , "geometry" : { "coordinates" : [ -71.07446947061051 , 42.335483780080374] , "type" : "Point"} , "type" : "Feature" , "properties" : { "TOWN" : "BOSTON" , "TOWN_ID" : 35 , "OBJECTID" : 3102 , "STOP_NAME" : "Harrison Ave opp. East Springfield St." , "STOP_ID" : 15088}},
{ "_id" : { "$oid" : "58477e40c011636715aa5db2"} , "geometry" : { "coordinates" : [ -71.04586751121622 , 42.33540174449424] , "type" : "Point"} , "type" : "Feature" , "properties" : { "TOWN" : "BOSTON" , "TOWN_ID" : 35 , "OBJECTID" : 3103 , "STOP_NAME" : "Dorchester St @ Broadway" , "STOP_ID" : 46}},
{ "_id" : { "$oid" : "58477e40c011636715aa5db3"} , "geometry" : { "coordinates" : [ -71.04569577687376 , 42.33546055573873] , "type" : "Point"} , "type" : "Feature" , "properties" : { "TOWN" : "BOSTON" , "TOWN_ID" : 35 , "OBJECTID" : 3104 , "STOP_NAME" : "Dorchester St @ E Broadway" , "STOP_ID" : 20}},
{ "_id" : { "$oid" : "58477e40c011636715aa5db4"} , "geometry" : { "coordinates" : [ -71.04440332472596 , 42.33548427845045] , "type" : "Point"} , "type" : "Feature" , "properties" : { "TOWN" : "BOSTON" , "TOWN_ID" : 35 , "OBJECTID" : 3105 , "STOP_NAME" : "E Broadway @ G St" , "STOP_ID" : 21}},
{ "_id" : { "$oid" : "58477e40c011636715aa5db5"} , "geometry" : { "coordinates" : [ -71.04415112369254 , 42.33548959338822] , "type" : "Point"} , "type" : "Feature" , "properties" : { "TOWN" : "BOSTON" , "TOWN_ID" : 35 , "OBJECTID" : 3106 , "STOP_NAME" : "E Broadway @ G St" , "STOP_ID" : 45}},
{ "_id" : { "$oid" : "58477e40c011636715aa5db6"} , "geometry" : { "coordinates" : [ -71.07218232709575 , 42.33561776685392] , "type" : "Point"} , "type" : "Feature" , "properties" : { "TOWN" : "BOSTON" , "TOWN_ID" : 35 , "OBJECTID" : 3107 , "STOP_NAME" : "91  E Concord St" , "STOP_ID" : 5089}},
{ "_id" : { "$oid" : "58477e40c011636715aa5db7"} , "geometry" : { "coordinates" : [ -71.2071136770441 , 42.336045312032695] , "type" : "Point"} , "type" : "Feature" , "properties" : { "TOWN" : "NEWTON" , "TOWN_ID" : 207 , "OBJECTID" : 3108 , "STOP_NAME" : "Walnut St @ Homer St" , "STOP_ID" : 8160}},
{ "_id" : { "$oid" : "58477e40c011636715aa5db8"} , "geometry" : { "coordinates" : [ -71.04579539766736 , 42.335526187520706] , "type" : "Point"} , "type" : "Feature" , "properties" : { "TOWN" : "BOSTON" , "TOWN_ID" : 35 , "OBJECTID" : 3109 , "STOP_NAME" : "W Broadway @ Dorchester St" , "STOP_ID" : 157}},
{ "_id" : { "$oid" : "58477e40c011636715aa5db9"} , "geometry" : { "coordinates" : [ -71.04174563513469 , 42.335536055525516] , "type" : "Point"} , "type" : "Feature" , "properties" : { "TOWN" : "BOSTON" , "TOWN_ID" : 35 , "OBJECTID" : 3110 , "STOP_NAME" : "E Broadway @ H St" , "STOP_ID" : 44}},
{ "_id" : { "$oid" : "58477e40c011636715aa5dba"} , "geometry" : { "coordinates" : [ -71.04174563513469 , 42.335536055525516] , "type" : "Point"} , "type" : "Feature" , "properties" : { "TOWN" : "BOSTON" , "TOWN_ID" : 35 , "OBJECTID" : 3111 , "STOP_NAME" : "E Broadway @ H St" , "STOP_ID" : 22}},
{ "_id" : { "$oid" : "58477e40c011636715aa5dbb"} , "geometry" : { "coordinates" : [ -71.0999105415063 , 42.335759246753724] , "type" : "Point"} , "type" : "Feature" , "properties" : { "TOWN" : "BOSTON" , "TOWN_ID" : 35 , "OBJECTID" : 3112 , "STOP_NAME" : "Longwood Ave @ Huntington Ave" , "STOP_ID" : 31318}},
{ "_id" : { "$oid" : "58477e40c011636715aa5dbc"} , "geometry" : { "coordinates" : [ -71.04012370766476 , 42.335560505038785] , "type" : "Point"} , "type" : "Feature" , "properties" : { "TOWN" : "BOSTON" , "TOWN_ID" : 35 , "OBJECTID" : 3113 , "STOP_NAME" : "E Broadway @ I St" , "STOP_ID" : 23}},
{ "_id" : { "$oid" : "58477e40c011636715aa5dbd"} , "geometry" : { "coordinates" : [ -71.03969040345018 , 42.33556561677999] , "type" : "Point"} , "type" : "Feature" , "properties" : { "TOWN" : "BOSTON" , "TOWN_ID" : 35 , "OBJECTID" : 3114 , "STOP_NAME" : "E Broadway @ I St" , "STOP_ID" : 43}},
{ "_id" : { "$oid" : "58477e40c011636715aa5dbe"} , "geometry" : { "coordinates" : [ -71.08687528554047 , 42.335770420280284] , "type" : "Point"} , "type" : "Feature" , "properties" : { "TOWN" : "BOSTON" , "TOWN_ID" : 35 , "OBJECTID" : 3115 , "STOP_NAME" : "Tremont St @ Melnea Cass Blvd" , "STOP_ID" : 1227}},
{ "_id" : { "$oid" : "58477e40c011636715aa5dbf"} , "geometry" : { "coordinates" : [ -71.12040317679829 , 42.33588707041173] , "type" : "Point"} , "type" : "Feature" , "properties" : { "TOWN" : "BROOKLINE" , "TOWN_ID" : 46 , "OBJECTID" : 3116 , "STOP_NAME" : "Harvard St @ School St" , "STOP_ID" : 1311}},
{ "_id" : { "$oid" : "58477e40c011636715aa5dc0"} , "geometry" : { "coordinates" : [ -71.03755505625942 , 42.33559442383162] , "type" : "Point"} , "type" : "Feature" , "properties" : { "TOWN" : "BOSTON" , "TOWN_ID" : 35 , "OBJECTID" : 3117 , "STOP_NAME" : "E Broadway @ K St" , "STOP_ID" : 24}},
{ "_id" : { "$oid" : "58477e40c011636715aa5dc1"} , "geometry" : { "coordinates" : [ -71.03731166374784 , 42.33559890301953] , "type" : "Point"} , "type" : "Feature" , "properties" : { "TOWN" : "BOSTON" , "TOWN_ID" : 35 , "OBJECTID" : 3118 , "STOP_NAME" : "E Broadway @ K St" , "STOP_ID" : 42}},
{ "_id" : { "$oid" : "58477e40c011636715aa5dc2"} , "geometry" : { "coordinates" : [ -71.03562261437881 , 42.335633451519804] , "type" : "Point"} , "type" : "Feature" , "properties" : { "TOWN" : "BOSTON" , "TOWN_ID" : 35 , "OBJECTID" : 3119 , "STOP_NAME" : "E Broadway @ L St" , "STOP_ID" : 25}},
{ "_id" : { "$oid" : "58477e40c011636715aa5dc3"} , "geometry" : { "coordinates" : [ -71.03562261437881 , 42.335633451519804] , "type" : "Point"} , "type" : "Feature" , "properties" : { "TOWN" : "BOSTON" , "TOWN_ID" : 35 , "OBJECTID" : 3120 , "STOP_NAME" : "E Broadway @ L St" , "STOP_ID" : 41}},
{ "_id" : { "$oid" : "58477e40c011636715aa5dc4"} , "geometry" : { "coordinates" : [ -71.20707079152166 , 42.33622673513368] , "type" : "Point"} , "type" : "Feature" , "properties" : { "TOWN" : "NEWTON" , "TOWN_ID" : 207 , "OBJECTID" : 3121 , "STOP_NAME" : "Walnut St @ Homer St" , "STOP_ID" : 8197}},
{ "_id" : { "$oid" : "58477e40c011636715aa5dc5"} , "geometry" : { "coordinates" : [ -71.09993716868557 , 42.33590771762375] , "type" : "Point"} , "type" : "Feature" , "properties" : { "TOWN" : "BOSTON" , "TOWN_ID" : 35 , "OBJECTID" : 3122 , "STOP_NAME" : "Huntington Ave @ Longwood Ave" , "STOP_ID" : 31317}},
{ "_id" : { "$oid" : "58477e40c011636715aa5dc6"} , "geometry" : { "coordinates" : [ -71.07028207951231 , 42.335805477386245] , "type" : "Point"} , "type" : "Feature" , "properties" : { "TOWN" : "BOSTON" , "TOWN_ID" : 35 , "OBJECTID" : 3123 , "STOP_NAME" : "Albany St opp E Newton St" , "STOP_ID" : 10006}},
{ "_id" : { "$oid" : "58477e40c011636715aa5dc7"} , "geometry" : { "coordinates" : [ -71.0331811040312 , 42.33567905871585] , "type" : "Point"} , "type" : "Feature" , "properties" : { "TOWN" : "BOSTON" , "TOWN_ID" : 35 , "OBJECTID" : 3124 , "STOP_NAME" : "E Broadway @ M St" , "STOP_ID" : 26}},
{ "_id" : { "$oid" : "58477e40c011636715aa5dc8"} , "geometry" : { "coordinates" : [ -71.0331811040312 , 42.33567905871585] , "type" : "Point"} , "type" : "Feature" , "properties" : { "TOWN" : "BOSTON" , "TOWN_ID" : 35 , "OBJECTID" : 3125 , "STOP_NAME" : "E Broadway @ M St" , "STOP_ID" : 896}},
{ "_id" : { "$oid" : "58477e40c011636715aa5dc9"} , "geometry" : { "coordinates" : [ -71.03544535126676 , 42.33570280904373] , "type" : "Point"} , "type" : "Feature" , "properties" : { "TOWN" : "BOSTON" , "TOWN_ID" : 35 , "OBJECTID" : 3126 , "STOP_NAME" : "L St @ Broadway" , "STOP_ID" : 879}},
{ "_id" : { "$oid" : "58477e40c011636715aa5dca"} , "geometry" : { "coordinates" : [ -71.07398251964588 , 42.33585966997137] , "type" : "Point"} , "type" : "Feature" , "properties" : { "TOWN" : "BOSTON" , "TOWN_ID" : 35 , "OBJECTID" : 3127 , "STOP_NAME" : "Harrison Ave @ Worcester Sq" , "STOP_ID" : 1790}},
{ "_id" : { "$oid" : "58477e40c011636715aa5dcb"} , "geometry" : { "coordinates" : [ -71.03143542108685 , 42.335702411342126] , "type" : "Point"} , "type" : "Feature" , "properties" : { "TOWN" : "BOSTON" , "TOWN_ID" : 35 , "OBJECTID" : 3128 , "STOP_NAME" : "E Broadway @ N St" , "STOP_ID" : 895}},
{ "_id" : { "$oid" : "58477e40c011636715aa5dcc"} , "geometry" : { "coordinates" : [ -71.03109114051978 , 42.335707705833904] , "type" : "Point"} , "type" : "Feature" , "properties" : { "TOWN" : "BOSTON" , "TOWN_ID" : 35 , "OBJECTID" : 3129 , "STOP_NAME" : "E Broadway @ N St" , "STOP_ID" : 27}},
{ "_id" : { "$oid" : "58477e40c011636715aa5dcd"} , "geometry" : { "coordinates" : [ -71.02506847391233 , 42.33569608248191] , "type" : "Point"} , "type" : "Feature" , "properties" : { "TOWN" : "BOSTON" , "TOWN_ID" : 35 , "OBJECTID" : 3130 , "STOP_NAME" : "Farragut Rd @ Broadway" , "STOP_ID" : 30272}},
{ "_id" : { "$oid" : "58477e40c011636715aa5dce"} , "geometry" : { "coordinates" : [ -71.05143845208478 , 42.33580668821855] , "type" : "Point"} , "type" : "Feature" , "properties" : { "TOWN" : "BOSTON" , "TOWN_ID" : 35 , "OBJECTID" : 3131 , "STOP_NAME" : "W 6th St @ E St" , "STOP_ID" : 289}},
{ "_id" : { "$oid" : "58477e40c011636715aa5dcf"} , "geometry" : { "coordinates" : [ -71.10020987798215 , 42.335991522065484] , "type" : "Point"} , "type" : "Feature" , "properties" : { "TOWN" : "BOSTON" , "TOWN_ID" : 35 , "OBJECTID" : 3132 , "STOP_NAME" : "Huntington Ave @ Longwood Ave" , "STOP_ID" : 91391}},
{ "_id" : { "$oid" : "58477e40c011636715aa5dd0"} , "geometry" : { "coordinates" : [ -71.15103451544081 , 42.33616105919371] , "type" : "Point"} , "type" : "Feature" , "properties" : { "TOWN" : "BOSTON" , "TOWN_ID" : 35 , "OBJECTID" : 3133 , "STOP_NAME" : "Chestnut Hill Ave @ Beacon St" , "STOP_ID" : 1092}},
{ "_id" : { "$oid" : "58477e40c011636715aa5dd1"} , "geometry" : { "coordinates" : [ -71.12064636725522 , 42.33607927252812] , "type" : "Point"} , "type" : "Feature" , "properties" : { "TOWN" : "BROOKLINE" , "TOWN_ID" : 46 , "OBJECTID" : 3134 , "STOP_NAME" : "Harvard St @ Aspinwall Ave" , "STOP_ID" : 1369}},
{ "_id" : { "$oid" : "58477e40c011636715aa5dd2"} , "geometry" : { "coordinates" : [ -71.02903900621124 , 42.335740790467646] , "type" : "Point"} , "type" : "Feature" , "properties" : { "TOWN" : "BOSTON" , "TOWN_ID" : 35 , "OBJECTID" : 3135 , "STOP_NAME" : "E Broadway @ O St" , "STOP_ID" : 28}},
{ "_id" : { "$oid" : "58477e40c011636715aa5dd3"} , "geometry" : { "coordinates" : [ -71.03544717364993 , 42.33576697514308] , "type" : "Point"} , "type" : "Feature" , "properties" : { "TOWN" : "BOSTON" , "TOWN_ID" : 35 , "OBJECTID" : 3136 , "STOP_NAME" : "L St @ Broadway" , "STOP_ID" : 886}},
{ "_id" : { "$oid" : "58477e40c011636715aa5dd4"} , "geometry" : { "coordinates" : [ -71.02730846330192 , 42.3357693542819] , "type" : "Point"} , "type" : "Feature" , "properties" : { "TOWN" : "BOSTON" , "TOWN_ID" : 35 , "OBJECTID" : 3137 , "STOP_NAME" : "E Broadway @ P St" , "STOP_ID" : 29}},
{ "_id" : { "$oid" : "58477e40c011636715aa5dd5"} , "geometry" : { "coordinates" : [ -71.02519553260369 , 42.33580801278088] , "type" : "Point"} , "type" : "Feature" , "properties" : { "TOWN" : "BOSTON" , "TOWN_ID" : 35 , "OBJECTID" : 3138 , "STOP_NAME" : "E Broadway @ Farragut Rd" , "STOP_ID" : 30}},
{ "_id" : { "$oid" : "58477e40c011636715aa5dd6"} , "geometry" : { "coordinates" : [ -71.02718773394501 , 42.335835754394395] , "type" : "Point"} , "type" : "Feature" , "properties" : { "TOWN" : "BOSTON" , "TOWN_ID" : 35 , "OBJECTID" : 3139 , "STOP_NAME" : "P St @ E Broadway" , "STOP_ID" : 35}},
{ "_id" : { "$oid" : "58477e40c011636715aa5dd7"} , "geometry" : { "coordinates" : [ -71.08887266543124 , 42.33632311342811] , "type" : "Point"} , "type" : "Feature" , "properties" : { "TOWN" : "BOSTON" , "TOWN_ID" : 35 , "OBJECTID" : 3140 , "STOP_NAME" : "Ruggles Station - Lane 2" , "STOP_ID" : 17863}},
{ "_id" : { "$oid" : "58477e40c011636715aa5dd8"} , "geometry" : { "coordinates" : [ -71.25315587304831 , 42.33679365411325] , "type" : "Point"} , "type" : "Feature" , "properties" : { "TOWN" : "NEWTON" , "TOWN_ID" : 207 , "OBJECTID" : 3141 , "STOP_NAME" : "Riverside Sta" , "STOP_ID" : 38155}},
{ "_id" : { "$oid" : "58477e40c011636715aa5dd9"} , "geometry" : { "coordinates" : [ -71.04676957901786 , 42.336167986421586] , "type" : "Point"} , "type" : "Feature" , "properties" : { "TOWN" : "BOSTON" , "TOWN_ID" : 35 , "OBJECTID" : 3142 , "STOP_NAME" : "442 W Broadway" , "STOP_ID" : 158}},
{ "_id" : { "$oid" : "58477e40c011636715aa5dda"} , "geometry" : { "coordinates" : [ -71.07686373688108 , 42.33634472156541] , "type" : "Point"} , "type" : "Feature" , "properties" : { "TOWN" : "BOSTON" , "TOWN_ID" : 35 , "OBJECTID" : 3143 , "STOP_NAME" : "Massachusetts Ave @ Washington St" , "STOP_ID" : 59}},
{ "_id" : { "$oid" : "58477e40c011636715aa5ddb"} , "geometry" : { "coordinates" : [ -71.07719816092042 , 42.33634643810194] , "type" : "Point"} , "type" : "Feature" , "properties" : { "TOWN" : "BOSTON" , "TOWN_ID" : 35 , "OBJECTID" : 3144 , "STOP_NAME" : "Washington St @ Massachusetts Ave" , "STOP_ID" : 55}},
{ "_id" : { "$oid" : "58477e40c011636715aa5ddc"} , "geometry" : { "coordinates" : [ -71.05396420032824 , 42.336295564317105] , "type" : "Point"} , "type" : "Feature" , "properties" : { "TOWN" : "BOSTON" , "TOWN_ID" : 35 , "OBJECTID" : 3145 , "STOP_NAME" : "W 7th St @ D St" , "STOP_ID" : 291}},
{ "_id" : { "$oid" : "58477e40c011636715aa5ddd"} , "geometry" : { "coordinates" : [ -71.05396420032824 , 42.336295564317105] , "type" : "Point"} , "type" : "Feature" , "properties" : { "TOWN" : "BOSTON" , "TOWN_ID" : 35 , "OBJECTID" : 3146 , "STOP_NAME" : "W 7th St @ D St" , "STOP_ID" : 253}},
{ "_id" : { "$oid" : "58477e40c011636715aa5dde"} , "geometry" : { "coordinates" : [ -71.07713804422765 , 42.33639197444971] , "type" : "Point"} , "type" : "Feature" , "properties" : { "TOWN" : "BOSTON" , "TOWN_ID" : 35 , "OBJECTID" : 3147 , "STOP_NAME" : "Washington St @ Massachusetts Ave" , "STOP_ID" : 5}},
{ "_id" : { "$oid" : "58477e40c011636715aa5ddf"} , "geometry" : { "coordinates" : [ -71.08901368580709 , 42.33644231414569] , "type" : "Point"} , "type" : "Feature" , "properties" : { "TOWN" : "BOSTON" , "TOWN_ID" : 35 , "OBJECTID" : 3148 , "STOP_NAME" : "Ruggles Station - Lane 1" , "STOP_ID" : 17862}},
{ "_id" : { "$oid" : "58477e40c011636715aa5de0"} , "geometry" : { "coordinates" : [ -71.08970705674312 , 42.33662952557872] , "type" : "Point"} , "type" : "Feature" , "properties" : { "TOWN" : "BOSTON" , "TOWN_ID" : 35 , "OBJECTID" : 3149 , "STOP_NAME" : "Ruggles Sta - Upper Level" , "STOP_ID" : 17861}},
{ "_id" : { "$oid" : "58477e40c011636715aa5de1"} , "geometry" : { "coordinates" : [ -71.07700704753962 , 42.336595917839034] , "type" : "Point"} , "type" : "Feature" , "properties" : { "TOWN" : "BOSTON" , "TOWN_ID" : 35 , "OBJECTID" : 3150 , "STOP_NAME" : "Massachusetts Ave @ Washington St" , "STOP_ID" : 10590}},
{ "_id" : { "$oid" : "58477e40c011636715aa5de2"} , "geometry" : { "coordinates" : [ -71.07100625867503 , 42.33665790603769] , "type" : "Point"} , "type" : "Feature" , "properties" : { "TOWN" : "BOSTON" , "TOWN_ID" : 35 , "OBJECTID" : 3151 , "STOP_NAME" : "88 E Newton St" , "STOP_ID" : 5090}},
{ "_id" : { "$oid" : "58477e40c011636715aa5de3"} , "geometry" : { "coordinates" : [ -71.09317938646767 , 42.336784968661014] , "type" : "Point"} , "type" : "Feature" , "properties" : { "TOWN" : "BOSTON" , "TOWN_ID" : 35 , "OBJECTID" : 3152 , "STOP_NAME" : "Ruggles St @ Annunciation Rd" , "STOP_ID" : 1785}},
{ "_id" : { "$oid" : "58477e40c011636715aa5de4"} , "geometry" : { "coordinates" : [ -71.09804310081427 , 42.33682759713725] , "type" : "Point"} , "type" : "Feature" , "properties" : { "TOWN" : "BOSTON" , "TOWN_ID" : 35 , "OBJECTID" : 3153 , "STOP_NAME" : "Huntington Ave @ Evans Way" , "STOP_ID" : 81391}},
{ "_id" : { "$oid" : "58477e40c011636715aa5de5"} , "geometry" : { "coordinates" : [ -71.10948121924235 , 42.336868907062005] , "type" : "Point"} , "type" : "Feature" , "properties" : { "TOWN" : "BOSTON" , "TOWN_ID" : 35 , "OBJECTID" : 3154 , "STOP_NAME" : "Brookline Ave @ Francis St" , "STOP_ID" : 1523}},
{ "_id" : { "$oid" : "58477e40c011636715aa5de6"} , "geometry" : { "coordinates" : [ -71.10948121924235 , 42.336868907062005] , "type" : "Point"} , "type" : "Feature" , "properties" : { "TOWN" : "BOSTON" , "TOWN_ID" : 35 , "OBJECTID" : 3155 , "STOP_NAME" : "Brookline Ave @ Francis St" , "STOP_ID" : 1558}},
{ "_id" : { "$oid" : "58477e40c011636715aa5de7"} , "geometry" : { "coordinates" : [ -71.15215195462561 , 42.337069216011805] , "type" : "Point"} , "type" : "Feature" , "properties" : { "TOWN" : "BOSTON" , "TOWN_ID" : 35 , "OBJECTID" : 3156 , "STOP_NAME" : "Chestnut Hill Ave @ Englewood Ave" , "STOP_ID" : 1027}},
{ "_id" : { "$oid" : "58477e40c011636715aa5de8"} , "geometry" : { "coordinates" : [ -71.04758992974243 , 42.336708424066494] , "type" : "Point"} , "type" : "Feature" , "properties" : { "TOWN" : "BOSTON" , "TOWN_ID" : 35 , "OBJECTID" : 3157 , "STOP_NAME" : "W Broadway @ F St" , "STOP_ID" : 156}},
{ "_id" : { "$oid" : "58477e40c011636715aa5de9"} , "geometry" : { "coordinates" : [ -71.08479311095202 , 42.33690048353562] , "type" : "Point"} , "type" : "Feature" , "properties" : { "TOWN" : "BOSTON" , "TOWN_ID" : 35 , "OBJECTID" : 3158 , "STOP_NAME" : "Tremont St @ Burke St" , "STOP_ID" : 1254}},
{ "_id" : { "$oid" : "58477e40c011636715aa5dea"} , "geometry" : { "coordinates" : [ -71.1264506172677 , 42.337058666384] , "type" : "Point"} , "type" : "Feature" , "properties" : { "TOWN" : "BROOKLINE" , "TOWN_ID" : 46 , "OBJECTID" : 3159 , "STOP_NAME" : "Washington St @ Gardner Path" , "STOP_ID" : 1280}},
{ "_id" : { "$oid" : "58477e40c011636715aa5deb"} , "geometry" : { "coordinates" : [ -71.05303426889066 , 42.336807995697875] , "type" : "Point"} , "type" : "Feature" , "properties" : { "TOWN" : "BOSTON" , "TOWN_ID" : 35 , "OBJECTID" : 3160 , "STOP_NAME" : "W 6th St @ D St" , "STOP_ID" : 290}},
{ "_id" : { "$oid" : "58477e40c011636715aa5dec"} , "geometry" : { "coordinates" : [ -71.0938411387657 , 42.337036573514844] , "type" : "Point"} , "type" : "Feature" , "properties" : { "TOWN" : "BOSTON" , "TOWN_ID" : 35 , "OBJECTID" : 3161 , "STOP_NAME" : "Ruggles St @ Parker St" , "STOP_ID" : 1798}},
{ "_id" : { "$oid" : "58477e40c011636715aa5ded"} , "geometry" : { "coordinates" : [ -71.04789788494239 , 42.3369090464962] , "type" : "Point"} , "type" : "Feature" , "properties" : { "TOWN" : "BOSTON" , "TOWN_ID" : 35 , "OBJECTID" : 3162 , "STOP_NAME" : "W Broadway @ F St" , "STOP_ID" : 159}},
{ "_id" : { "$oid" : "58477e40c011636715aa5dee"} , "geometry" : { "coordinates" : [ -71.12678242094375 , 42.33738256964165] , "type" : "Point"} , "type" : "Feature" , "properties" : { "TOWN" : "BROOKLINE" , "TOWN_ID" : 46 , "OBJECTID" : 3163 , "STOP_NAME" : "Washington St @ Griggs Rd" , "STOP_ID" : 1289}},
{ "_id" : { "$oid" : "58477e40c011636715aa5def"} , "geometry" : { "coordinates" : [ -71.05527377608516 , 42.33716362380871] , "type" : "Point"} , "type" : "Feature" , "properties" : { "TOWN" : "BOSTON" , "TOWN_ID" : 35 , "OBJECTID" : 3164 , "STOP_NAME" : "W 7th St @ C St" , "STOP_ID" : 292}},
{ "_id" : { "$oid" : "58477e40c011636715aa5df0"} , "geometry" : { "coordinates" : [ -71.08409479384473 , 42.33728886962171] , "type" : "Point"} , "type" : "Feature" , "properties" : { "TOWN" : "BOSTON" , "TOWN_ID" : 35 , "OBJECTID" : 3165 , "STOP_NAME" : "Tremont St @ Hammond St" , "STOP_ID" : 1228}},
{ "_id" : { "$oid" : "58477e40c011636715aa5df1"} , "geometry" : { "coordinates" : [ -71.07585511245972 , 42.33731540490453] , "type" : "Point"} , "type" : "Feature" , "properties" : { "TOWN" : "BOSTON" , "TOWN_ID" : 35 , "OBJECTID" : 3166 , "STOP_NAME" : "Washington St @ Worcester St" , "STOP_ID" : 15176}},
{ "_id" : { "$oid" : "58477e40c011636715aa5df2"} , "geometry" : { "coordinates" : [ -71.05545108604592 , 42.33728007851488] , "type" : "Point"} , "type" : "Feature" , "properties" : { "TOWN" : "BOSTON" , "TOWN_ID" : 35 , "OBJECTID" : 3167 , "STOP_NAME" : "W 7th  St @ C St" , "STOP_ID" : 252}},
{ "_id" : { "$oid" : "58477e40c011636715aa5df3"} , "geometry" : { "coordinates" : [ -71.07212501516773 , 42.337379262259255] , "type" : "Point"} , "type" : "Feature" , "properties" : { "TOWN" : "BOSTON" , "TOWN_ID" : 35 , "OBJECTID" : 3168 , "STOP_NAME" : "Harrison Ave @ E Newton St" , "STOP_ID" : 10015}},
{ "_id" : { "$oid" : "58477e40c011636715aa5df4"} , "geometry" : { "coordinates" : [ -71.09500786698699 , 42.33747019046838] , "type" : "Point"} , "type" : "Feature" , "properties" : { "TOWN" : "BOSTON" , "TOWN_ID" : 35 , "OBJECTID" : 3169 , "STOP_NAME" : "Ruggles St @ Huntington Ave" , "STOP_ID" : 1784}},
{ "_id" : { "$oid" : "58477e40c011636715aa5df5"} , "geometry" : { "coordinates" : [ -71.09511644413126 , 42.33750258911818] , "type" : "Point"} , "type" : "Feature" , "properties" : { "TOWN" : "BOSTON" , "TOWN_ID" : 35 , "OBJECTID" : 3170 , "STOP_NAME" : "Ruggles St @ Huntington Ave" , "STOP_ID" : 1799}},
{ "_id" : { "$oid" : "58477e40c011636715aa5df6"} , "geometry" : { "coordinates" : [ -71.06788986874449 , 42.337501443714594] , "type" : "Point"} , "type" : "Feature" , "properties" : { "TOWN" : "BOSTON" , "TOWN_ID" : 35 , "OBJECTID" : 3171 , "STOP_NAME" : "Albany St @  E Dedham St" , "STOP_ID" : 10013}},
{ "_id" : { "$oid" : "58477e40c011636715aa5df7"} , "geometry" : { "coordinates" : [ -71.03548796455539 , 42.337380177641144] , "type" : "Point"} , "type" : "Feature" , "properties" : { "TOWN" : "BOSTON" , "TOWN_ID" : 35 , "OBJECTID" : 3172 , "STOP_NAME" : "L St @ E 2nd St" , "STOP_ID" : 880}},
{ "_id" : { "$oid" : "58477e40c011636715aa5df8"} , "geometry" : { "coordinates" : [ -71.0755187660763 , 42.33755555218095] , "type" : "Point"} , "type" : "Feature" , "properties" : { "TOWN" : "BOSTON" , "TOWN_ID" : 35 , "OBJECTID" : 3173 , "STOP_NAME" : "Washington St @ Worcester St" , "STOP_ID" : 1787}},
{ "_id" : { "$oid" : "58477e40c011636715aa5df9"} , "geometry" : { "coordinates" : [ -71.09543105137632 , 42.33765117453986] , "type" : "Point"} , "type" : "Feature" , "properties" : { "TOWN" : "BOSTON" , "TOWN_ID" : 35 , "OBJECTID" : 3174 , "STOP_NAME" : "Huntington Ave @ Ruggles St" , "STOP_ID" : 51317}},
{ "_id" : { "$oid" : "58477e40c011636715aa5dfa"} , "geometry" : { "coordinates" : [ -71.10495134687183 , 42.33770088065754] , "type" : "Point"} , "type" : "Feature" , "properties" : { "TOWN" : "BOSTON" , "TOWN_ID" : 35 , "OBJECTID" : 3175 , "STOP_NAME" : "Longwood Ave @ Blackfan St" , "STOP_ID" : 1780}},
{ "_id" : { "$oid" : "58477e40c011636715aa5dfb"} , "geometry" : { "coordinates" : [ -71.07209806593953 , 42.337605257345984] , "type" : "Point"} , "type" : "Feature" , "properties" : { "TOWN" : "BOSTON" , "TOWN_ID" : 35 , "OBJECTID" : 3176 , "STOP_NAME" : "E Newton St @ Harrison Ave" , "STOP_ID" : 5091}},
{ "_id" : { "$oid" : "58477e40c011636715aa5dfc"} , "geometry" : { "coordinates" : [ -71.19303606936842 , 42.3380187049968] , "type" : "Point"} , "type" : "Feature" , "properties" : { "TOWN" : "NEWTON" , "TOWN_ID" : 207 , "OBJECTID" : 3177 , "STOP_NAME" : "Centre St @ Ward St" , "STOP_ID" : 8508}},
{ "_id" : { "$oid" : "58477e40c011636715aa5dfd"} , "geometry" : { "coordinates" : [ -71.15312231803199 , 42.33792177976329] , "type" : "Point"} , "type" : "Feature" , "properties" : { "TOWN" : "BOSTON" , "TOWN_ID" : 35 , "OBJECTID" : 3178 , "STOP_NAME" : "Chestnut Hill Ave @ Commonwealth Ave" , "STOP_ID" : 1028}},
{ "_id" : { "$oid" : "58477e40c011636715aa5dfe"} , "geometry" : { "coordinates" : [ -71.09565047091937 , 42.33777336627116] , "type" : "Point"} , "type" : "Feature" , "properties" : { "TOWN" : "BOSTON" , "TOWN_ID" : 35 , "OBJECTID" : 3179 , "STOP_NAME" : "Huntington Ave @ Louis Prang St" , "STOP_ID" : 71391}},
{ "_id" : { "$oid" : "58477e40c011636715aa5dff"} , "geometry" : { "coordinates" : [ -71.0272381724286 , 42.337531505321074] , "type" : "Point"} , "type" : "Feature" , "properties" : { "TOWN" : "BOSTON" , "TOWN_ID" : 35 , "OBJECTID" : 3180 , "STOP_NAME" : "P St @ E 2nd St" , "STOP_ID" : 34}},
{ "_id" : { "$oid" : "58477e40c011636715aa5e00"} , "geometry" : { "coordinates" : [ -71.12144717174706 , 42.337908653845034] , "type" : "Point"} , "type" : "Feature" , "properties" : { "TOWN" : "BROOKLINE" , "TOWN_ID" : 46 , "OBJECTID" : 3181 , "STOP_NAME" : "Harvard St @ Harris St" , "STOP_ID" : 1310}},
{ "_id" : { "$oid" : "58477e40c011636715aa5e01"} , "geometry" : { "coordinates" : [ -71.10837780555087 , 42.33790143795303] , "type" : "Point"} , "type" : "Feature" , "properties" : { "TOWN" : "BOSTON" , "TOWN_ID" : 35 , "OBJECTID" : 3182 , "STOP_NAME" : "Brookline Ave @ Deaconess Rd" , "STOP_ID" : 1559}},
{ "_id" : { "$oid" : "58477e40c011636715aa5e02"} , "geometry" : { "coordinates" : [ -71.04911867061291 , 42.33769753714827] , "type" : "Point"} , "type" : "Feature" , "properties" : { "TOWN" : "BOSTON" , "TOWN_ID" : 35 , "OBJECTID" : 3183 , "STOP_NAME" : "W Broadway @ E St" , "STOP_ID" : 155}},
{ "_id" : { "$oid" : "58477e40c011636715aa5e03"} , "geometry" : { "coordinates" : [ -71.02511603890683 , 42.337628100257085] , "type" : "Point"} , "type" : "Feature" , "properties" : { "TOWN" : "BOSTON" , "TOWN_ID" : 35 , "OBJECTID" : 3184 , "STOP_NAME" : "Farragut Rd opp E 2nd St" , "STOP_ID" : 32}},
{ "_id" : { "$oid" : "58477e40c011636715aa5e04"} , "geometry" : { "coordinates" : [ -71.08305862766129 , 42.33786074265803] , "type" : "Point"} , "type" : "Feature" , "properties" : { "TOWN" : "BOSTON" , "TOWN_ID" : 35 , "OBJECTID" : 3185 , "STOP_NAME" : "Tremont St @ Lenox St" , "STOP_ID" : 11228}},
{ "_id" : { "$oid" : "58477e40c011636715aa5e05"} , "geometry" : { "coordinates" : [ -71.08305862766129 , 42.33786074265803] , "type" : "Point"} , "type" : "Feature" , "properties" : { "TOWN" : "BOSTON" , "TOWN_ID" : 35 , "OBJECTID" : 3186 , "STOP_NAME" : "Tremont St @ Douglas Pk" , "STOP_ID" : 1253}},
{ "_id" : { "$oid" : "58477e40c011636715aa5e06"} , "geometry" : { "coordinates" : [ -71.19300636229082 , 42.33821078597442] , "type" : "Point"} , "type" : "Feature" , "properties" : { "TOWN" : "NEWTON" , "TOWN_ID" : 207 , "OBJECTID" : 3187 , "STOP_NAME" : "Centre St @ Ward St" , "STOP_ID" : 8525}},
{ "_id" : { "$oid" : "58477e40c011636715aa5e07"} , "geometry" : { "coordinates" : [ -71.04943651747884 , 42.337904038885696] , "type" : "Point"} , "type" : "Feature" , "properties" : { "TOWN" : "BOSTON" , "TOWN_ID" : 35 , "OBJECTID" : 3188 , "STOP_NAME" : "W Broadway @ E St" , "STOP_ID" : 160}},
{ "_id" : { "$oid" : "58477e40c011636715aa5e08"} , "geometry" : { "coordinates" : [ -71.15347479483015 , 42.33828573436817] , "type" : "Point"} , "type" : "Feature" , "properties" : { "TOWN" : "BOSTON" , "TOWN_ID" : 35 , "OBJECTID" : 3189 , "STOP_NAME" : "Chestnut Hill Ave @ Commonwealth Ave" , "STOP_ID" : 1029}},
{ "_id" : { "$oid" : "58477e40c011636715aa5e09"} , "geometry" : { "coordinates" : [ -71.10596209719215 , 42.33817233030415] , "type" : "Point"} , "type" : "Feature" , "properties" : { "TOWN" : "BOSTON" , "TOWN_ID" : 35 , "OBJECTID" : 3190 , "STOP_NAME" : "Longwood Ave @ Binney St" , "STOP_ID" : 11803}},
{ "_id" : { "$oid" : "58477e40c011636715aa5e0a"} , "geometry" : { "coordinates" : [ -71.12140961281436 , 42.33829066705647] , "type" : "Point"} , "type" : "Feature" , "properties" : { "TOWN" : "BROOKLINE" , "TOWN_ID" : 46 , "OBJECTID" : 3191 , "STOP_NAME" : "Harvard St opp Vernon St" , "STOP_ID" : 1371}},
{ "_id" : { "$oid" : "58477e40c011636715aa5e0b"} , "geometry" : { "coordinates" : [ -71.13135061508859 , 42.33833966764697] , "type" : "Point"} , "type" : "Feature" , "properties" : { "TOWN" : "BROOKLINE" , "TOWN_ID" : 46 , "OBJECTID" : 3192 , "STOP_NAME" : "Washington St @ Fairbank St" , "STOP_ID" : 1291}},
{ "_id" : { "$oid" : "58477e40c011636715aa5e0c"} , "geometry" : { "coordinates" : [ -71.15364750724628 , 42.338431550828524] , "type" : "Point"} , "type" : "Feature" , "properties" : { "TOWN" : "BOSTON" , "TOWN_ID" : 35 , "OBJECTID" : 3193 , "STOP_NAME" : "Chestnut Hill Ave @ Commonwealth Ave" , "STOP_ID" : 1090}},
{ "_id" : { "$oid" : "58477e40c011636715aa5e0d"} , "geometry" : { "coordinates" : [ -71.05673854086174 , 42.33810078616393] , "type" : "Point"} , "type" : "Feature" , "properties" : { "TOWN" : "BOSTON" , "TOWN_ID" : 35 , "OBJECTID" : 3194 , "STOP_NAME" : "W 7th St @ B St" , "STOP_ID" : 269}},
{ "_id" : { "$oid" : "58477e40c011636715aa5e0e"} , "geometry" : { "coordinates" : [ -71.13158660516042 , 42.33837651137491] , "type" : "Point"} , "type" : "Feature" , "properties" : { "TOWN" : "BROOKLINE" , "TOWN_ID" : 46 , "OBJECTID" : 3195 , "STOP_NAME" : "Washington St @ Winthrop Path" , "STOP_ID" : 1278}},
{ "_id" : { "$oid" : "58477e40c011636715aa5e0f"} , "geometry" : { "coordinates" : [ -71.05681519000552 , 42.33814857401631] , "type" : "Point"} , "type" : "Feature" , "properties" : { "TOWN" : "BOSTON" , "TOWN_ID" : 35 , "OBJECTID" : 3196 , "STOP_NAME" : "W 7th @ B Street" , "STOP_ID" : 293}},
{ "_id" : { "$oid" : "58477e40c011636715aa5e10"} , "geometry" : { "coordinates" : [ -71.2068938472888 , 42.33866450049395] , "type" : "Point"} , "type" : "Feature" , "properties" : { "TOWN" : "NEWTON" , "TOWN_ID" : 207 , "OBJECTID" : 3197 , "STOP_NAME" : "Walnut St @ Commonwealth Ave" , "STOP_ID" : 8196}},
{ "_id" : { "$oid" : "58477e40c011636715aa5e11"} , "geometry" : { "coordinates" : [ -71.12917061670495 , 42.33847866785155] , "type" : "Point"} , "type" : "Feature" , "properties" : { "TOWN" : "BROOKLINE" , "TOWN_ID" : 46 , "OBJECTID" : 3198 , "STOP_NAME" : "Washington St @ Gardner Rd" , "STOP_ID" : 1279}},
{ "_id" : { "$oid" : "58477e40c011636715aa5e12"} , "geometry" : { "coordinates" : [ -71.12883061792921 , 42.33847866725412] , "type" : "Point"} , "type" : "Feature" , "properties" : { "TOWN" : "BROOKLINE" , "TOWN_ID" : 46 , "OBJECTID" : 3199 , "STOP_NAME" : "Washington St opp Gardner Rd" , "STOP_ID" : 1290}},
{ "_id" : { "$oid" : "58477e40c011636715aa5e13"} , "geometry" : { "coordinates" : [ -71.09721418912592 , 42.338382735719584] , "type" : "Point"} , "type" : "Feature" , "properties" : { "TOWN" : "BOSTON" , "TOWN_ID" : 35 , "OBJECTID" : 3200 , "STOP_NAME" : "Louis Prang St @ Evans Way" , "STOP_ID" : 1800}},
{ "_id" : { "$oid" : "58477e40c011636715aa5e14"} , "geometry" : { "coordinates" : [ -71.03321612427091 , 42.33819063284328] , "type" : "Point"} , "type" : "Feature" , "properties" : { "TOWN" : "BOSTON" , "TOWN_ID" : 35 , "OBJECTID" : 3201 , "STOP_NAME" : "East 1st St @ M St" , "STOP_ID" : 8851}},
{ "_id" : { "$oid" : "58477e40c011636715aa5e15"} , "geometry" : { "coordinates" : [ -71.10225349434593 , 42.338452367385884] , "type" : "Point"} , "type" : "Feature" , "properties" : { "TOWN" : "BOSTON" , "TOWN_ID" : 35 , "OBJECTID" : 3202 , "STOP_NAME" : "Ave Louis Pasteur @ Longwood Ave" , "STOP_ID" : 11780}},
{ "_id" : { "$oid" : "58477e40c011636715aa5e16"} , "geometry" : { "coordinates" : [ -71.10225349434593 , 42.338452367385884] , "type" : "Point"} , "type" : "Feature" , "properties" : { "TOWN" : "BOSTON" , "TOWN_ID" : 35 , "OBJECTID" : 3203 , "STOP_NAME" : "Ave Louis Pasteur @ Longwood Ave" , "STOP_ID" : 11802}},
{ "_id" : { "$oid" : "58477e40c011636715aa5e17"} , "geometry" : { "coordinates" : [ -71.03550947418152 , 42.338211988761515] , "type" : "Point"} , "type" : "Feature" , "properties" : { "TOWN" : "BOSTON" , "TOWN_ID" : 35 , "OBJECTID" : 3204 , "STOP_NAME" : "Summer St @ E 1st St" , "STOP_ID" : 885}},
{ "_id" : { "$oid" : "58477e40c011636715aa5e18"} , "geometry" : { "coordinates" : [ -71.07088337803359 , 42.33836914723632] , "type" : "Point"} , "type" : "Feature" , "properties" : { "TOWN" : "BOSTON" , "TOWN_ID" : 35 , "OBJECTID" : 3205 , "STOP_NAME" : " Harrison Ave  @ E Brookline St" , "STOP_ID" : 11158}},
{ "_id" : { "$oid" : "58477e40c011636715aa5e19"} , "geometry" : { "coordinates" : [ -71.06667805295449 , 42.33837373882147] , "type" : "Point"} , "type" : "Feature" , "properties" : { "TOWN" : "BOSTON" , "TOWN_ID" : 35 , "OBJECTID" : 3206 , "STOP_NAME" : "540 Albany St opp Wareham St" , "STOP_ID" : 10007}},
{ "_id" : { "$oid" : "58477e40c011636715aa5e1a"} , "geometry" : { "coordinates" : [ -71.06667805295449 , 42.33837373882147] , "type" : "Point"} , "type" : "Feature" , "properties" : { "TOWN" : "BOSTON" , "TOWN_ID" : 35 , "OBJECTID" : 3207 , "STOP_NAME" : "Albany St @ Wareham St" , "STOP_ID" : 10012}},
{ "_id" : { "$oid" : "58477e40c011636715aa5e1b"} , "geometry" : { "coordinates" : [ -71.02943858382295 , 42.338245229845846] , "type" : "Point"} , "type" : "Feature" , "properties" : { "TOWN" : "BOSTON" , "TOWN_ID" : 35 , "OBJECTID" : 3208 , "STOP_NAME" : "E 1st St @ O St" , "STOP_ID" : 10033}},
{ "_id" : { "$oid" : "58477e40c011636715aa5e1c"} , "geometry" : { "coordinates" : [ -71.02920010751755 , 42.338248688386834] , "type" : "Point"} , "type" : "Feature" , "properties" : { "TOWN" : "BOSTON" , "TOWN_ID" : 35 , "OBJECTID" : 3209 , "STOP_NAME" : "E 1st St opp O St" , "STOP_ID" : 10032}},
{ "_id" : { "$oid" : "58477e40c011636715aa5e1d"} , "geometry" : { "coordinates" : [ -71.03551072915866 , 42.338285196906405] , "type" : "Point"} , "type" : "Feature" , "properties" : { "TOWN" : "BOSTON" , "TOWN_ID" : 35 , "OBJECTID" : 3210 , "STOP_NAME" : "Summer St @ E 1st St" , "STOP_ID" : 884}},
{ "_id" : { "$oid" : "58477e40c011636715aa5e1e"} , "geometry" : { "coordinates" : [ -71.02712679948702 , 42.338285281598054] , "type" : "Point"} , "type" : "Feature" , "properties" : { "TOWN" : "BOSTON" , "TOWN_ID" : 35 , "OBJECTID" : 3211 , "STOP_NAME" : "E 1st St @ P St" , "STOP_ID" : 10031}},
{ "_id" : { "$oid" : "58477e40c011636715aa5e1f"} , "geometry" : { "coordinates" : [ -71.206882666745 , 42.33893290904554] , "type" : "Point"} , "type" : "Feature" , "properties" : { "TOWN" : "NEWTON" , "TOWN_ID" : 207 , "OBJECTID" : 3212 , "STOP_NAME" : "Walnut St @ Commonwealth Ave" , "STOP_ID" : 8161}},
{ "_id" : { "$oid" : "58477e40c011636715aa5e20"} , "geometry" : { "coordinates" : [ -71.03190266678072 , 42.33850852234483] , "type" : "Point"} , "type" : "Feature" , "properties" : { "TOWN" : "BOSTON" , "TOWN_ID" : 35 , "OBJECTID" : 3213 , "STOP_NAME" : "City Point Bus Terminal" , "STOP_ID" : 33}},
{ "_id" : { "$oid" : "58477e40c011636715aa5e21"} , "geometry" : { "coordinates" : [ -71.10741453956176 , 42.33879881497792] , "type" : "Point"} , "type" : "Feature" , "properties" : { "TOWN" : "BOSTON" , "TOWN_ID" : 35 , "OBJECTID" : 3214 , "STOP_NAME" : "Brookline Ave @ Longwood Ave" , "STOP_ID" : 1521}},
{ "_id" : { "$oid" : "58477e40c011636715aa5e22"} , "geometry" : { "coordinates" : [ -71.10712258741843 , 42.33883435514455] , "type" : "Point"} , "type" : "Feature" , "properties" : { "TOWN" : "BOSTON" , "TOWN_ID" : 35 , "OBJECTID" : 3215 , "STOP_NAME" : "Longwood Ave @ Brookline Ave" , "STOP_ID" : 1779}},
{ "_id" : { "$oid" : "58477e40c011636715aa5e23"} , "geometry" : { "coordinates" : [ -71.08120819775795 , 42.33878975067256] , "type" : "Point"} , "type" : "Feature" , "properties" : { "TOWN" : "BOSTON" , "TOWN_ID" : 35 , "OBJECTID" : 3216 , "STOP_NAME" : "Tremont St @ Northampton St" , "STOP_ID" : 1230}},
{ "_id" : { "$oid" : "58477e40c011636715aa5e24"} , "geometry" : { "coordinates" : [ -71.07378775488864 , 42.338767551822144] , "type" : "Point"} , "type" : "Feature" , "properties" : { "TOWN" : "BOSTON" , "TOWN_ID" : 35 , "OBJECTID" : 3217 , "STOP_NAME" : "Washington St @ W Newton St" , "STOP_ID" : 19402}},
{ "_id" : { "$oid" : "58477e40c011636715aa5e25"} , "geometry" : { "coordinates" : [ -71.07353787682746 , 42.33880174027496] , "type" : "Point"} , "type" : "Feature" , "properties" : { "TOWN" : "BOSTON" , "TOWN_ID" : 35 , "OBJECTID" : 3218 , "STOP_NAME" : "E Newton St @ Washington St" , "STOP_ID" : 9421}},
{ "_id" : { "$oid" : "58477e40c011636715aa5e26"} , "geometry" : { "coordinates" : [ -71.07373152942641 , 42.33880704633132] , "type" : "Point"} , "type" : "Feature" , "properties" : { "TOWN" : "BOSTON" , "TOWN_ID" : 35 , "OBJECTID" : 3219 , "STOP_NAME" : "Washington St @ E Newton St" , "STOP_ID" : 1788}},
{ "_id" : { "$oid" : "58477e40c011636715aa5e27"} , "geometry" : { "coordinates" : [ -71.1348006157972 , 42.33901866713598] , "type" : "Point"} , "type" : "Feature" , "properties" : { "TOWN" : "BROOKLINE" , "TOWN_ID" : 46 , "OBJECTID" : 3220 , "STOP_NAME" : "Washington St @ Beacon St" , "STOP_ID" : 1276}},
{ "_id" : { "$oid" : "58477e40c011636715aa5e28"} , "geometry" : { "coordinates" : [ -71.1071637710286 , 42.339036314361394] , "type" : "Point"} , "type" : "Feature" , "properties" : { "TOWN" : "BOSTON" , "TOWN_ID" : 35 , "OBJECTID" : 3221 , "STOP_NAME" : "Brookline Ave @ Longwood Ave" , "STOP_ID" : 1804}},
{ "_id" : { "$oid" : "58477e40c011636715aa5e29"} , "geometry" : { "coordinates" : [ -71.08112335459548 , 42.338945208566] , "type" : "Point"} , "type" : "Feature" , "properties" : { "TOWN" : "BOSTON" , "TOWN_ID" : 35 , "OBJECTID" : 3222 , "STOP_NAME" : "Tremont St @ Northampton St" , "STOP_ID" : 1252}},
{ "_id" : { "$oid" : "58477e40c011636715aa5e2a"} , "geometry" : { "coordinates" : [ -71.13512133705322 , 42.33919506389414] , "type" : "Point"} , "type" : "Feature" , "properties" : { "TOWN" : "BROOKLINE" , "TOWN_ID" : 46 , "OBJECTID" : 3223 , "STOP_NAME" : "Washington St @ Beacon St" , "STOP_ID" : 1292}},
{ "_id" : { "$oid" : "58477e40c011636715aa5e2b"} , "geometry" : { "coordinates" : [ -71.05100756809769 , 42.33891379999222] , "type" : "Point"} , "type" : "Feature" , "properties" : { "TOWN" : "BOSTON" , "TOWN_ID" : 35 , "OBJECTID" : 3224 , "STOP_NAME" : "W Broadway @ D St" , "STOP_ID" : 154}},
{ "_id" : { "$oid" : "58477e40c011636715aa5e2c"} , "geometry" : { "coordinates" : [ -71.05100756809769 , 42.33891379999222] , "type" : "Point"} , "type" : "Feature" , "properties" : { "TOWN" : "BOSTON" , "TOWN_ID" : 35 , "OBJECTID" : 3225 , "STOP_NAME" : "W Broadway @ D St" , "STOP_ID" : 161}},
{ "_id" : { "$oid" : "58477e40c011636715aa5e2d"} , "geometry" : { "coordinates" : [ -71.05616686918336 , 42.33893682000946] , "type" : "Point"} , "type" : "Feature" , "properties" : { "TOWN" : "BOSTON" , "TOWN_ID" : 35 , "OBJECTID" : 3226 , "STOP_NAME" : "B St @ W 6th St" , "STOP_ID" : 251}},
{ "_id" : { "$oid" : "58477e40c011636715aa5e2e"} , "geometry" : { "coordinates" : [ -71.08022279399056 , 42.33911853005719] , "type" : "Point"} , "type" : "Feature" , "properties" : { "TOWN" : "BOSTON" , "TOWN_ID" : 35 , "OBJECTID" : 3227 , "STOP_NAME" : "Massachusetts Ave @ Tremont St" , "STOP_ID" : 84}},
{ "_id" : { "$oid" : "58477e40c011636715aa5e2f"} , "geometry" : { "coordinates" : [ -71.09212990511672 , 42.339172117997194] , "type" : "Point"} , "type" : "Feature" , "properties" : { "TOWN" : "BOSTON" , "TOWN_ID" : 35 , "OBJECTID" : 3228 , "STOP_NAME" : "Huntington Ave @ Forsyth Way" , "STOP_ID" : 61391}},
{ "_id" : { "$oid" : "58477e40c011636715aa5e30"} , "geometry" : { "coordinates" : [ -71.05711739981203 , 42.33929804116961] , "type" : "Point"} , "type" : "Feature" , "properties" : { "TOWN" : "BOSTON" , "TOWN_ID" : 35 , "OBJECTID" : 3229 , "STOP_NAME" : "250 Dorchester Avenue" , "STOP_ID" : 30294}},
{ "_id" : { "$oid" : "58477e40c011636715aa5e31"} , "geometry" : { "coordinates" : [ -71.08041413290461 , 42.339431086550974] , "type" : "Point"} , "type" : "Feature" , "properties" : { "TOWN" : "BOSTON" , "TOWN_ID" : 35 , "OBJECTID" : 3230 , "STOP_NAME" : "Massachusetts Ave @ Tremont St" , "STOP_ID" : 87}},
{ "_id" : { "$oid" : "58477e40c011636715aa5e32"} , "geometry" : { "coordinates" : [ -71.12097061184224 , 42.33960866890141] , "type" : "Point"} , "type" : "Feature" , "properties" : { "TOWN" : "BROOKLINE" , "TOWN_ID" : 46 , "OBJECTID" : 3231 , "STOP_NAME" : "Harvard St @ Marion St" , "STOP_ID" : 1309}},
{ "_id" : { "$oid" : "58477e40c011636715aa5e33"} , "geometry" : { "coordinates" : [ -71.0796498106311 , 42.33961561867883] , "type" : "Point"} , "type" : "Feature" , "properties" : { "TOWN" : "BOSTON" , "TOWN_ID" : 35 , "OBJECTID" : 3232 , "STOP_NAME" : "Tremont St @ W Springfield St" , "STOP_ID" : 1231}},
{ "_id" : { "$oid" : "58477e40c011636715aa5e34"} , "geometry" : { "coordinates" : [ -71.05544402477625 , 42.339549337315546] , "type" : "Point"} , "type" : "Feature" , "properties" : { "TOWN" : "BOSTON" , "TOWN_ID" : 35 , "OBJECTID" : 3233 , "STOP_NAME" : "B St @ W 5th St" , "STOP_ID" : 250}},
{ "_id" : { "$oid" : "58477e40c011636715aa5e35"} , "geometry" : { "coordinates" : [ -71.07976386564998 , 42.33969289456825] , "type" : "Point"} , "type" : "Feature" , "properties" : { "TOWN" : "BOSTON" , "TOWN_ID" : 35 , "OBJECTID" : 3234 , "STOP_NAME" : "Tremont St @ W Springfield St" , "STOP_ID" : 1251}},
{ "_id" : { "$oid" : "58477e40c011636715aa5e36"} , "geometry" : { "coordinates" : [ -71.0522423599262 , 42.33971735815463] , "type" : "Point"} , "type" : "Feature" , "properties" : { "TOWN" : "BOSTON" , "TOWN_ID" : 35 , "OBJECTID" : 3235 , "STOP_NAME" : "W Broadway @ Linsky Barry Ct" , "STOP_ID" : 11532}},
{ "_id" : { "$oid" : "58477e40c011636715aa5e37"} , "geometry" : { "coordinates" : [ -71.06905794137303 , 42.33983123828525] , "type" : "Point"} , "type" : "Feature" , "properties" : { "TOWN" : "BOSTON" , "TOWN_ID" : 35 , "OBJECTID" : 3236 , "STOP_NAME" : "Harrison Ave. opp Plympton St" , "STOP_ID" : 21158}},
{ "_id" : { "$oid" : "58477e40c011636715aa5e38"} , "geometry" : { "coordinates" : [ -71.1553419327041 , 42.34024361558737] , "type" : "Point"} , "type" : "Feature" , "properties" : { "TOWN" : "BOSTON" , "TOWN_ID" : 35 , "OBJECTID" : 3237 , "STOP_NAME" : "Chestnut Hill Ave @ Strathmore Rd" , "STOP_ID" : 1030}},
{ "_id" : { "$oid" : "58477e40c011636715aa5e39"} , "geometry" : { "coordinates" : [ -71.05259247747483 , 42.3399389989895] , "type" : "Point"} , "type" : "Feature" , "properties" : { "TOWN" : "BOSTON" , "TOWN_ID" : 35 , "OBJECTID" : 3238 , "STOP_NAME" : "W Broadway @ C St" , "STOP_ID" : 162}},
{ "_id" : { "$oid" : "58477e40c011636715aa5e3a"} , "geometry" : { "coordinates" : [ -71.06438432087371 , 42.339990941979885] , "type" : "Point"} , "type" : "Feature" , "properties" : { "TOWN" : "BOSTON" , "TOWN_ID" : 35 , "OBJECTID" : 3239 , "STOP_NAME" : "Albany St opp Randolph St" , "STOP_ID" : 10008}},
{ "_id" : { "$oid" : "58477e40c011636715aa5e3b"} , "geometry" : { "coordinates" : [ -71.19265127363947 , 42.3404687373023] , "type" : "Point"} , "type" : "Feature" , "properties" : { "TOWN" : "NEWTON" , "TOWN_ID" : 207 , "OBJECTID" : 3240 , "STOP_NAME" : "Centre St @ Alderwood Rd" , "STOP_ID" : 8509}},
{ "_id" : { "$oid" : "58477e40c011636715aa5e3c"} , "geometry" : { "coordinates" : [ -71.03555370906514 , 42.33996053944208] , "type" : "Point"} , "type" : "Feature" , "properties" : { "TOWN" : "BOSTON" , "TOWN_ID" : 35 , "OBJECTID" : 3241 , "STOP_NAME" : "Summer St @ Powerhouse St" , "STOP_ID" : 208}},
{ "_id" : { "$oid" : "58477e40c011636715aa5e3d"} , "geometry" : { "coordinates" : [ -71.07872372650279 , 42.34018401350871] , "type" : "Point"} , "type" : "Feature" , "properties" : { "TOWN" : "BOSTON" , "TOWN_ID" : 35 , "OBJECTID" : 3242 , "STOP_NAME" : "Tremont St @ Worcester St" , "STOP_ID" : 1250}},
{ "_id" : { "$oid" : "58477e40c011636715aa5e3e"} , "geometry" : { "coordinates" : [ -71.10097615533435 , 42.34027248185216] , "type" : "Point"} , "type" : "Feature" , "properties" : { "TOWN" : "BOSTON" , "TOWN_ID" : 35 , "OBJECTID" : 3243 , "STOP_NAME" : "Ave Louis Pasteur @ The Fenway" , "STOP_ID" : 11781}},
{ "_id" : { "$oid" : "58477e40c011636715aa5e3f"} , "geometry" : { "coordinates" : [ -71.10097615533435 , 42.34027248185216] , "type" : "Point"} , "type" : "Feature" , "properties" : { "TOWN" : "BOSTON" , "TOWN_ID" : 35 , "OBJECTID" : 3244 , "STOP_NAME" : "Ave Louis Pasteur @ The Fenway" , "STOP_ID" : 11799}},
{ "_id" : { "$oid" : "58477e40c011636715aa5e40"} , "geometry" : { "coordinates" : [ -71.15525379704769 , 42.340452511146836] , "type" : "Point"} , "type" : "Feature" , "properties" : { "TOWN" : "BOSTON" , "TOWN_ID" : 35 , "OBJECTID" : 3245 , "STOP_NAME" : "Chestnut Hill Ave @ South St" , "STOP_ID" : 1089}},
{ "_id" : { "$oid" : "58477e40c011636715aa5e41"} , "geometry" : { "coordinates" : [ -71.0641423167453 , 42.34017017365652] , "type" : "Point"} , "type" : "Feature" , "properties" : { "TOWN" : "BOSTON" , "TOWN_ID" : 35 , "OBJECTID" : 3246 , "STOP_NAME" : "Albany St @ Randolph St" , "STOP_ID" : 10011}},
{ "_id" : { "$oid" : "58477e40c011636715aa5e42"} , "geometry" : { "coordinates" : [ -71.08885033821934 , 42.34030299386473] , "type" : "Point"} , "type" : "Feature" , "properties" : { "TOWN" : "BOSTON" , "TOWN_ID" : 35 , "OBJECTID" : 3247 , "STOP_NAME" : "360 Huntington Ave" , "STOP_ID" : 81317}},
{ "_id" : { "$oid" : "58477e40c011636715aa5e43"} , "geometry" : { "coordinates" : [ -71.10569410611608 , 42.3404103246412] , "type" : "Point"} , "type" : "Feature" , "properties" : { "TOWN" : "BOSTON" , "TOWN_ID" : 35 , "OBJECTID" : 3248 , "STOP_NAME" : "Brookline Ave @ Short St" , "STOP_ID" : 1778}},
{ "_id" : { "$oid" : "58477e40c011636715aa5e44"} , "geometry" : { "coordinates" : [ -71.1056380948839 , 42.340463207444664] , "type" : "Point"} , "type" : "Feature" , "properties" : { "TOWN" : "BOSTON" , "TOWN_ID" : 35 , "OBJECTID" : 3249 , "STOP_NAME" : "Brookline Ave opp Short St" , "STOP_ID" : 1805}},
{ "_id" : { "$oid" : "58477e40c011636715aa5e45"} , "geometry" : { "coordinates" : [ -71.07820884141017 , 42.34045756868848] , "type" : "Point"} , "type" : "Feature" , "properties" : { "TOWN" : "BOSTON" , "TOWN_ID" : 35 , "OBJECTID" : 3250 , "STOP_NAME" : "Tremont St @ W Concord St" , "STOP_ID" : 1232}},
{ "_id" : { "$oid" : "58477e40c011636715aa5e46"} , "geometry" : { "coordinates" : [ -71.08886881231247 , 42.34049978020061] , "type" : "Point"} , "type" : "Feature" , "properties" : { "TOWN" : "BOSTON" , "TOWN_ID" : 35 , "OBJECTID" : 3251 , "STOP_NAME" : "Huntington Ave @ Opera Pl" , "STOP_ID" : 41391}},
{ "_id" : { "$oid" : "58477e40c011636715aa5e47"} , "geometry" : { "coordinates" : [ -71.07125029035447 , 42.34044262533203] , "type" : "Point"} , "type" : "Feature" , "properties" : { "TOWN" : "BOSTON" , "TOWN_ID" : 35 , "OBJECTID" : 3252 , "STOP_NAME" : "Washington St @ Mystic St" , "STOP_ID" : 1789}},
{ "_id" : { "$oid" : "58477e40c011636715aa5e48"} , "geometry" : { "coordinates" : [ -71.07125029035447 , 42.34044262533203] , "type" : "Point"} , "type" : "Feature" , "properties" : { "TOWN" : "BOSTON" , "TOWN_ID" : 35 , "OBJECTID" : 3253 , "STOP_NAME" : "Washington St @ Union Pk" , "STOP_ID" : 5100}},
{ "_id" : { "$oid" : "58477e40c011636715aa5e49"} , "geometry" : { "coordinates" : [ -71.19256473732484 , 42.34086857327018] , "type" : "Point"} , "type" : "Feature" , "properties" : { "TOWN" : "NEWTON" , "TOWN_ID" : 207 , "OBJECTID" : 3254 , "STOP_NAME" : "Centre St @ Mill St" , "STOP_ID" : 8524}},
{ "_id" : { "$oid" : "58477e40c011636715aa5e4a"} , "geometry" : { "coordinates" : [ -71.08166359585424 , 42.34056535640249] , "type" : "Point"} , "type" : "Feature" , "properties" : { "TOWN" : "BOSTON" , "TOWN_ID" : 35 , "OBJECTID" : 3255 , "STOP_NAME" : "Massachusetts Ave @ Columbus Ave" , "STOP_ID" : 88}},
{ "_id" : { "$oid" : "58477e40c011636715aa5e4b"} , "geometry" : { "coordinates" : [ -71.0543089916273 , 42.34049669753799] , "type" : "Point"} , "type" : "Feature" , "properties" : { "TOWN" : "BOSTON" , "TOWN_ID" : 35 , "OBJECTID" : 3256 , "STOP_NAME" : "B St @ Silver St" , "STOP_ID" : 249}},
{ "_id" : { "$oid" : "58477e40c011636715aa5e4c"} , "geometry" : { "coordinates" : [ -71.0819465684061 , 42.34068874989939] , "type" : "Point"} , "type" : "Feature" , "properties" : { "TOWN" : "BOSTON" , "TOWN_ID" : 35 , "OBJECTID" : 3257 , "STOP_NAME" : "Massachusetts Ave @ Columbus Ave" , "STOP_ID" : 83}},
{ "_id" : { "$oid" : "58477e40c011636715aa5e4d"} , "geometry" : { "coordinates" : [ -71.05373650223942 , 42.340679436090724] , "type" : "Point"} , "type" : "Feature" , "properties" : { "TOWN" : "BOSTON" , "TOWN_ID" : 35 , "OBJECTID" : 3258 , "STOP_NAME" : "W Broadway @ B St" , "STOP_ID" : 153}},
{ "_id" : { "$oid" : "58477e40c011636715aa5e4e"} , "geometry" : { "coordinates" : [ -71.23840351991751 , 42.34126027237094] , "type" : "Point"} , "type" : "Feature" , "properties" : { "TOWN" : "NEWTON" , "TOWN_ID" : 207 , "OBJECTID" : 3259 , "STOP_NAME" : "Washington St @ Commonwealth Ave" , "STOP_ID" : 65544}},
{ "_id" : { "$oid" : "58477e40c011636715aa5e4f"} , "geometry" : { "coordinates" : [ -71.23830622019861 , 42.341341088427754] , "type" : "Point"} , "type" : "Feature" , "properties" : { "TOWN" : "NEWTON" , "TOWN_ID" : 207 , "OBJECTID" : 3260 , "STOP_NAME" : "Washington St @ Commonwealth Ave" , "STOP_ID" : 78215}},
{ "_id" : { "$oid" : "58477e40c011636715aa5e50"} , "geometry" : { "coordinates" : [ -71.15481871822125 , 42.34112495458397] , "type" : "Point"} , "type" : "Feature" , "properties" : { "TOWN" : "BOSTON" , "TOWN_ID" : 35 , "OBJECTID" : 3261 , "STOP_NAME" : "Chestnut Hill Ave @ Chiswick Rd" , "STOP_ID" : 1031}},
{ "_id" : { "$oid" : "58477e40c011636715aa5e51"} , "geometry" : { "coordinates" : [ -71.20670021696827 , 42.341283628789945] , "type" : "Point"} , "type" : "Feature" , "properties" : { "TOWN" : "NEWTON" , "TOWN_ID" : 207 , "OBJECTID" : 3262 , "STOP_NAME" : "Walnut St @ Prospect Ave" , "STOP_ID" : 8162}},
{ "_id" : { "$oid" : "58477e40c011636715aa5e52"} , "geometry" : { "coordinates" : [ -71.13790438415803 , 42.341098852551845] , "type" : "Point"} , "type" : "Feature" , "properties" : { "TOWN" : "BROOKLINE" , "TOWN_ID" : 46 , "OBJECTID" : 3263 , "STOP_NAME" : "Wahington St @ Evans Rd" , "STOP_ID" : 1275}},
{ "_id" : { "$oid" : "58477e40c011636715aa5e53"} , "geometry" : { "coordinates" : [ -71.0711036707461 , 42.340889581134526] , "type" : "Point"} , "type" : "Feature" , "properties" : { "TOWN" : "BOSTON" , "TOWN_ID" : 35 , "OBJECTID" : 3264 , "STOP_NAME" : "W Dedham St @ Washington St" , "STOP_ID" : 1381}},
{ "_id" : { "$oid" : "58477e40c011636715aa5e54"} , "geometry" : { "coordinates" : [ -71.07725239243398 , 42.340965425176734] , "type" : "Point"} , "type" : "Feature" , "properties" : { "TOWN" : "BOSTON" , "TOWN_ID" : 35 , "OBJECTID" : 3265 , "STOP_NAME" : "Tremont St @ Rutland Sq" , "STOP_ID" : 1249}},
{ "_id" : { "$oid" : "58477e40c011636715aa5e55"} , "geometry" : { "coordinates" : [ -71.19235306118576 , 42.34133743615279] , "type" : "Point"} , "type" : "Feature" , "properties" : { "TOWN" : "NEWTON" , "TOWN_ID" : 207 , "OBJECTID" : 3266 , "STOP_NAME" : "Centre St @ Cotton St" , "STOP_ID" : 8510}},
{ "_id" : { "$oid" : "58477e40c011636715aa5e56"} , "geometry" : { "coordinates" : [ -71.07135880771428 , 42.34095256193714] , "type" : "Point"} , "type" : "Feature" , "properties" : { "TOWN" : "BOSTON" , "TOWN_ID" : 35 , "OBJECTID" : 3267 , "STOP_NAME" : "W Dedham St @ Washington St" , "STOP_ID" : 1398}},
{ "_id" : { "$oid" : "58477e40c011636715aa5e57"} , "geometry" : { "coordinates" : [ -71.05406250639169 , 42.340887455440416] , "type" : "Point"} , "type" : "Feature" , "properties" : { "TOWN" : "BOSTON" , "TOWN_ID" : 35 , "OBJECTID" : 3268 , "STOP_NAME" : "W Broadway @ B St" , "STOP_ID" : 163}},
{ "_id" : { "$oid" : "58477e40c011636715aa5e58"} , "geometry" : { "coordinates" : [ -71.20669063940323 , 42.34141276409679] , "type" : "Point"} , "type" : "Feature" , "properties" : { "TOWN" : "NEWTON" , "TOWN_ID" : 207 , "OBJECTID" : 3269 , "STOP_NAME" : "Walnut St @ Prospect St" , "STOP_ID" : 8195}},
{ "_id" : { "$oid" : "58477e40c011636715aa5e59"} , "geometry" : { "coordinates" : [ -71.13817853236503 , 42.341219312873896] , "type" : "Point"} , "type" : "Feature" , "properties" : { "TOWN" : "BROOKLINE" , "TOWN_ID" : 46 , "OBJECTID" : 3270 , "STOP_NAME" : "Washington St @ Bartlett St" , "STOP_ID" : 1293}},
{ "_id" : { "$oid" : "58477e40c011636715aa5e5a"} , "geometry" : { "coordinates" : [ -71.15463864575538 , 42.34142176594886] , "type" : "Point"} , "type" : "Feature" , "properties" : { "TOWN" : "BOSTON" , "TOWN_ID" : 35 , "OBJECTID" : 3271 , "STOP_NAME" : "Chestnut Hill Ave @ Embassy Rd" , "STOP_ID" : 1088}},
{ "_id" : { "$oid" : "58477e40c011636715aa5e5b"} , "geometry" : { "coordinates" : [ -71.19217297401507 , 42.34154417792597] , "type" : "Point"} , "type" : "Feature" , "properties" : { "TOWN" : "NEWTON" , "TOWN_ID" : 207 , "OBJECTID" : 3272 , "STOP_NAME" : "Centre St @ Cotton St" , "STOP_ID" : 8523}},
{ "_id" : { "$oid" : "58477e40c011636715aa5e5c"} , "geometry" : { "coordinates" : [ -71.08658652744964 , 42.3413042447466] , "type" : "Point"} , "type" : "Feature" , "properties" : { "TOWN" : "BOSTON" , "TOWN_ID" : 35 , "OBJECTID" : 3273 , "STOP_NAME" : "Huntington Ave @ Gainsborough St" , "STOP_ID" : 91317}},
{ "_id" : { "$oid" : "58477e40c011636715aa5e5d"} , "geometry" : { "coordinates" : [ -71.07669981334344 , 42.341282781009994] , "type" : "Point"} , "type" : "Feature" , "properties" : { "TOWN" : "BOSTON" , "TOWN_ID" : 35 , "OBJECTID" : 3274 , "STOP_NAME" : "Tremont St @ W Newton St" , "STOP_ID" : 1233}},
{ "_id" : { "$oid" : "58477e40c011636715aa5e5e"} , "geometry" : { "coordinates" : [ -71.08678861923613 , 42.34136678172379] , "type" : "Point"} , "type" : "Feature" , "properties" : { "TOWN" : "BOSTON" , "TOWN_ID" : 35 , "OBJECTID" : 3275 , "STOP_NAME" : "Huntington Ave @ Gainsborough St" , "STOP_ID" : 31391}},
{ "_id" : { "$oid" : "58477e40c011636715aa5e5f"} , "geometry" : { "coordinates" : [ -71.2398948182528 , 42.34198548276832] , "type" : "Point"} , "type" : "Feature" , "properties" : { "TOWN" : "NEWTON" , "TOWN_ID" : 207 , "OBJECTID" : 3276 , "STOP_NAME" : "Commonwealth Ave @ Windemere Rd" , "STOP_ID" : 65545}},
{ "_id" : { "$oid" : "58477e40c011636715aa5e60"} , "geometry" : { "coordinates" : [ -71.06923581352225 , 42.34150872535953] , "type" : "Point"} , "type" : "Feature" , "properties" : { "TOWN" : "BOSTON" , "TOWN_ID" : 35 , "OBJECTID" : 3277 , "STOP_NAME" : "Washington St @ Union Pk" , "STOP_ID" : 5093}},
{ "_id" : { "$oid" : "58477e40c011636715aa5e61"} , "geometry" : { "coordinates" : [ -71.08327633365985 , 42.341594729140205] , "type" : "Point"} , "type" : "Feature" , "properties" : { "TOWN" : "BOSTON" , "TOWN_ID" : 35 , "OBJECTID" : 3278 , "STOP_NAME" : "Massachusetts Ave @ Massachusetts Ave Station" , "STOP_ID" : 187}},
{ "_id" : { "$oid" : "58477e40c011636715aa5e62"} , "geometry" : { "coordinates" : [ -71.24006510568599 , 42.34208643974153] , "type" : "Point"} , "type" : "Feature" , "properties" : { "TOWN" : "NEWTON" , "TOWN_ID" : 207 , "OBJECTID" : 3279 , "STOP_NAME" : "Commonwealth Ave @ Windemere Rd" , "STOP_ID" : 78214}},
{ "_id" : { "$oid" : "58477e40c011636715aa5e63"} , "geometry" : { "coordinates" : [ -71.08320790627393 , 42.34166914149067] , "type" : "Point"} , "type" : "Feature" , "properties" : { "TOWN" : "BOSTON" , "TOWN_ID" : 35 , "OBJECTID" : 3280 , "STOP_NAME" : "Massachusetts Ave @ Massachusetts Ave Station" , "STOP_ID" : 188}},
{ "_id" : { "$oid" : "58477e40c011636715aa5e64"} , "geometry" : { "coordinates" : [ -71.07589919404013 , 42.34171143296981] , "type" : "Point"} , "type" : "Feature" , "properties" : { "TOWN" : "BOSTON" , "TOWN_ID" : 35 , "OBJECTID" : 3281 , "STOP_NAME" : "Tremont St @ Pembroke St" , "STOP_ID" : 1248}},
{ "_id" : { "$oid" : "58477e40c011636715aa5e65"} , "geometry" : { "coordinates" : [ -71.12120511183713 , 42.34193365940681] , "type" : "Point"} , "type" : "Feature" , "properties" : { "TOWN" : "BROOKLINE" , "TOWN_ID" : 46 , "OBJECTID" : 3282 , "STOP_NAME" : "Harvard St @ Beacon St" , "STOP_ID" : 1372}},
{ "_id" : { "$oid" : "58477e40c011636715aa5e66"} , "geometry" : { "coordinates" : [ -71.05536027996382 , 42.341731623538244] , "type" : "Point"} , "type" : "Feature" , "properties" : { "TOWN" : "BOSTON" , "TOWN_ID" : 35 , "OBJECTID" : 3283 , "STOP_NAME" : "W Broadway @ A St" , "STOP_ID" : 152}},
{ "_id" : { "$oid" : "58477e40c011636715aa5e67"} , "geometry" : { "coordinates" : [ -71.0754660666956 , 42.341938255097716] , "type" : "Point"} , "type" : "Feature" , "properties" : { "TOWN" : "BOSTON" , "TOWN_ID" : 35 , "OBJECTID" : 3284 , "STOP_NAME" : "Tremont St @ W Brookline St" , "STOP_ID" : 1234}},
{ "_id" : { "$oid" : "58477e40c011636715aa5e68"} , "geometry" : { "coordinates" : [ -71.07285938694854 , 42.341968926643396] , "type" : "Point"} , "type" : "Feature" , "properties" : { "TOWN" : "BOSTON" , "TOWN_ID" : 35 , "OBJECTID" : 3285 , "STOP_NAME" : "Opp 43 W Dedham St" , "STOP_ID" : 1397}},
{ "_id" : { "$oid" : "58477e40c011636715aa5e69"} , "geometry" : { "coordinates" : [ -71.06808464504599 , 42.34202221499938] , "type" : "Point"} , "type" : "Feature" , "properties" : { "TOWN" : "BOSTON" , "TOWN_ID" : 35 , "OBJECTID" : 3286 , "STOP_NAME" : "Washington St @ Savoy St" , "STOP_ID" : 15094}},
{ "_id" : { "$oid" : "58477e40c011636715aa5e6a"} , "geometry" : { "coordinates" : [ -71.07295676903543 , 42.34204863122826] , "type" : "Point"} , "type" : "Feature" , "properties" : { "TOWN" : "BOSTON" , "TOWN_ID" : 35 , "OBJECTID" : 3287 , "STOP_NAME" : "43 W Dedham St" , "STOP_ID" : 1382}},
{ "_id" : { "$oid" : "58477e40c011636715aa5e6b"} , "geometry" : { "coordinates" : [ -71.14032713447962 , 42.34234708922882] , "type" : "Point"} , "type" : "Feature" , "properties" : { "TOWN" : "BOSTON" , "TOWN_ID" : 35 , "OBJECTID" : 3288 , "STOP_NAME" : "Washington St @ Corey Rd" , "STOP_ID" : 1294}},
{ "_id" : { "$oid" : "58477e40c011636715aa5e6c"} , "geometry" : { "coordinates" : [ -71.12141061251882 , 42.34230867088787] , "type" : "Point"} , "type" : "Feature" , "properties" : { "TOWN" : "BROOKLINE" , "TOWN_ID" : 46 , "OBJECTID" : 3289 , "STOP_NAME" : "Harvard St @ Beacon St" , "STOP_ID" : 1308}},
{ "_id" : { "$oid" : "58477e40c011636715aa5e6d"} , "geometry" : { "coordinates" : [ -71.06785375184478 , 42.34219179637447] , "type" : "Point"} , "type" : "Feature" , "properties" : { "TOWN" : "BOSTON" , "TOWN_ID" : 35 , "OBJECTID" : 3290 , "STOP_NAME" : "Washington St opp Savoy St" , "STOP_ID" : 5099}},
{ "_id" : { "$oid" : "58477e40c011636715aa5e6e"} , "geometry" : { "coordinates" : [ -71.08418036120533 , 42.34225653661258] , "type" : "Point"} , "type" : "Feature" , "properties" : { "TOWN" : "BOSTON" , "TOWN_ID" : 35 , "OBJECTID" : 3291 , "STOP_NAME" : "Massachusetts Ave @ St Botolph St" , "STOP_ID" : 89}},
{ "_id" : { "$oid" : "58477e40c011636715aa5e6f"} , "geometry" : { "coordinates" : [ -71.14052200001014 , 42.34244692229806] , "type" : "Point"} , "type" : "Feature" , "properties" : { "TOWN" : "BOSTON" , "TOWN_ID" : 35 , "OBJECTID" : 3292 , "STOP_NAME" : "Washington St @ Corey St" , "STOP_ID" : 1274}},
{ "_id" : { "$oid" : "58477e40c011636715aa5e70"} , "geometry" : { "coordinates" : [ -71.09921793559691 , 42.34233562196583] , "type" : "Point"} , "type" : "Feature" , "properties" : { "TOWN" : "BOSTON" , "TOWN_ID" : 35 , "OBJECTID" : 3293 , "STOP_NAME" : "Kilmarnock St @ Queensberry St" , "STOP_ID" : 1925}},
{ "_id" : { "$oid" : "58477e40c011636715aa5e71"} , "geometry" : { "coordinates" : [ -71.10340433781032 , 42.342607013384615] , "type" : "Point"} , "type" : "Feature" , "properties" : { "TOWN" : "BOSTON" , "TOWN_ID" : 35 , "OBJECTID" : 3294 , "STOP_NAME" : "Brookline Ave @ Pilgrim Rd" , "STOP_ID" : 1777}},
{ "_id" : { "$oid" : "58477e40c011636715aa5e72"} , "geometry" : { "coordinates" : [ -71.08461769098302 , 42.34255030377319] , "type" : "Point"} , "type" : "Feature" , "properties" : { "TOWN" : "BOSTON" , "TOWN_ID" : 35 , "OBJECTID" : 3295 , "STOP_NAME" : "Massachusetts Ave @ Huntington Ave" , "STOP_ID" : 82}},
{ "_id" : { "$oid" : "58477e40c011636715aa5e73"} , "geometry" : { "coordinates" : [ -71.08501553047135 , 42.342574585299836] , "type" : "Point"} , "type" : "Feature" , "properties" : { "TOWN" : "BOSTON" , "TOWN_ID" : 35 , "OBJECTID" : 3296 , "STOP_NAME" : "Huntington Ave @ Mass Ave" , "STOP_ID" : 34513}},
{ "_id" : { "$oid" : "58477e40c011636715aa5e74"} , "geometry" : { "coordinates" : [ -71.10334109209735 , 42.34266166078266] , "type" : "Point"} , "type" : "Feature" , "properties" : { "TOWN" : "BOSTON" , "TOWN_ID" : 35 , "OBJECTID" : 3297 , "STOP_NAME" : "Brookline Ave @ The Fenway" , "STOP_ID" : 1806}},
{ "_id" : { "$oid" : "58477e40c011636715aa5e75"} , "geometry" : { "coordinates" : [ -71.24122439292844 , 42.343090554543394] , "type" : "Point"} , "type" : "Feature" , "properties" : { "TOWN" : "NEWTON" , "TOWN_ID" : 207 , "OBJECTID" : 3298 , "STOP_NAME" : "Commonwealth Ave opp Cheswick Rd" , "STOP_ID" : 65546}},
{ "_id" : { "$oid" : "58477e40c011636715aa5e76"} , "geometry" : { "coordinates" : [ -71.23650075060458 , 42.34312167522591] , "type" : "Point"} , "type" : "Feature" , "properties" : { "TOWN" : "NEWTON" , "TOWN_ID" : 207 , "OBJECTID" : 3299 , "STOP_NAME" : "1600 Washington St" , "STOP_ID" : 78216}},
{ "_id" : { "$oid" : "58477e40c011636715aa5e77"} , "geometry" : { "coordinates" : [ -71.20597412076287 , 42.34311810197519] , "type" : "Point"} , "type" : "Feature" , "properties" : { "TOWN" : "NEWTON" , "TOWN_ID" : 207 , "OBJECTID" : 3300 , "STOP_NAME" : "Walnut St @ Mill St" , "STOP_ID" : 8163}},
{ "_id" : { "$oid" : "58477e40c011636715aa5e78"} , "geometry" : { "coordinates" : [ -71.07399118390072 , 42.34271753855398] , "type" : "Point"} , "type" : "Feature" , "properties" : { "TOWN" : "BOSTON" , "TOWN_ID" : 35 , "OBJECTID" : 3301 , "STOP_NAME" : "Tremont St @ W Dedham St" , "STOP_ID" : 1235}},
{ "_id" : { "$oid" : "58477e40c011636715aa5e79"} , "geometry" : { "coordinates" : [ -71.05707821203129 , 42.34266095861937] , "type" : "Point"} , "type" : "Feature" , "properties" : { "TOWN" : "BOSTON" , "TOWN_ID" : 35 , "OBJECTID" : 3302 , "STOP_NAME" : "Broadway Station - Red Line" , "STOP_ID" : 150}},
{ "_id" : { "$oid" : "58477e40c011636715aa5e7a"} , "geometry" : { "coordinates" : [ -71.09715249783677 , 42.34282951166641] , "type" : "Point"} , "type" : "Feature" , "properties" : { "TOWN" : "BOSTON" , "TOWN_ID" : 35 , "OBJECTID" : 3303 , "STOP_NAME" : "Queensberry St @ Jersey St" , "STOP_ID" : 1926}},
{ "_id" : { "$oid" : "58477e40c011636715aa5e7b"} , "geometry" : { "coordinates" : [ -71.24131690731845 , 42.34325087677085] , "type" : "Point"} , "type" : "Feature" , "properties" : { "TOWN" : "NEWTON" , "TOWN_ID" : 207 , "OBJECTID" : 3304 , "STOP_NAME" : "Commonwealth Ave @ Cheswick Rd" , "STOP_ID" : 78213}},
{ "_id" : { "$oid" : "58477e40c011636715aa5e7c"} , "geometry" : { "coordinates" : [ -71.05699675691585 , 42.342700102889886] , "type" : "Point"} , "type" : "Feature" , "properties" : { "TOWN" : "BOSTON" , "TOWN_ID" : 35 , "OBJECTID" : 3305 , "STOP_NAME" : "W Broadway @ Broadway Station" , "STOP_ID" : 151}},
{ "_id" : { "$oid" : "58477e40c011636715aa5e7d"} , "geometry" : { "coordinates" : [ -71.06715094315051 , 42.34275470984573] , "type" : "Point"} , "type" : "Feature" , "properties" : { "TOWN" : "BOSTON" , "TOWN_ID" : 35 , "OBJECTID" : 3306 , "STOP_NAME" : "Washington St @ Perry St" , "STOP_ID" : 5094}},
{ "_id" : { "$oid" : "58477e40c011636715aa5e7e"} , "geometry" : { "coordinates" : [ -71.2363282749448 , 42.343280648471165] , "type" : "Point"} , "type" : "Feature" , "properties" : { "TOWN" : "NEWTON" , "TOWN_ID" : 207 , "OBJECTID" : 3307 , "STOP_NAME" : "Washington St @ Greenough St" , "STOP_ID" : 65543}},
{ "_id" : { "$oid" : "58477e40c011636715aa5e7f"} , "geometry" : { "coordinates" : [ -71.15354461551708 , 42.34309014353301] , "type" : "Point"} , "type" : "Feature" , "properties" : { "TOWN" : "BOSTON" , "TOWN_ID" : 35 , "OBJECTID" : 3308 , "STOP_NAME" : "Chestnut Hill Ave opp Wiltshire Rd" , "STOP_ID" : 1032}},
{ "_id" : { "$oid" : "58477e40c011636715aa5e80"} , "geometry" : { "coordinates" : [ -71.15354461551708 , 42.34309014353301] , "type" : "Point"} , "type" : "Feature" , "properties" : { "TOWN" : "BOSTON" , "TOWN_ID" : 35 , "OBJECTID" : 3309 , "STOP_NAME" : "Chestnut Hill Ave @ Wiltshire Rd" , "STOP_ID" : 1087}},
{ "_id" : { "$oid" : "58477e40c011636715aa5e81"} , "geometry" : { "coordinates" : [ -71.08497000071496 , 42.34289506554212] , "type" : "Point"} , "type" : "Feature" , "properties" : { "TOWN" : "BOSTON" , "TOWN_ID" : 35 , "OBJECTID" : 3310 , "STOP_NAME" : "Huntington Ave @ Mass Ave" , "STOP_ID" : 34514}},
{ "_id" : { "$oid" : "58477e40c011636715aa5e82"} , "geometry" : { "coordinates" : [ -71.07366803224784 , 42.342887966344634] , "type" : "Point"} , "type" : "Feature" , "properties" : { "TOWN" : "BOSTON" , "TOWN_ID" : 35 , "OBJECTID" : 3311 , "STOP_NAME" : "Tremont St @ Dartmouth St" , "STOP_ID" : 1247}},
{ "_id" : { "$oid" : "58477e40c011636715aa5e83"} , "geometry" : { "coordinates" : [ -71.07378700168033 , 42.34290350893264] , "type" : "Point"} , "type" : "Feature" , "properties" : { "TOWN" : "BOSTON" , "TOWN_ID" : 35 , "OBJECTID" : 3312 , "STOP_NAME" : "Dartmouth St @ Tremont St" , "STOP_ID" : 1383}},
{ "_id" : { "$oid" : "58477e40c011636715aa5e84"} , "geometry" : { "coordinates" : [ -71.07378700168033 , 42.34290350893264] , "type" : "Point"} , "type" : "Feature" , "properties" : { "TOWN" : "BOSTON" , "TOWN_ID" : 35 , "OBJECTID" : 3313 , "STOP_NAME" : "Dartmouth St @ Tremont St" , "STOP_ID" : 1396}},
{ "_id" : { "$oid" : "58477e40c011636715aa5e85"} , "geometry" : { "coordinates" : [ -71.20594574333913 , 42.343349291555946] , "type" : "Point"} , "type" : "Feature" , "properties" : { "TOWN" : "NEWTON" , "TOWN_ID" : 207 , "OBJECTID" : 3314 , "STOP_NAME" : "Walnut St @ Mill St" , "STOP_ID" : 8194}},
{ "_id" : { "$oid" : "58477e40c011636715aa5e86"} , "geometry" : { "coordinates" : [ -71.05505020675032 , 42.343034137281286] , "type" : "Point"} , "type" : "Feature" , "properties" : { "TOWN" : "BOSTON" , "TOWN_ID" : 35 , "OBJECTID" : 3315 , "STOP_NAME" : "W Second St opp W Third St" , "STOP_ID" : 11319}},
{ "_id" : { "$oid" : "58477e40c011636715aa5e87"} , "geometry" : { "coordinates" : [ -71.09961340568177 , 42.34322118084874] , "type" : "Point"} , "type" : "Feature" , "properties" : { "TOWN" : "BOSTON" , "TOWN_ID" : 35 , "OBJECTID" : 3316 , "STOP_NAME" : "Kilmarnock St @ Peterborough St" , "STOP_ID" : 1924}},
{ "_id" : { "$oid" : "58477e40c011636715aa5e88"} , "geometry" : { "coordinates" : [ -71.10255199039823 , 42.343412346564676] , "type" : "Point"} , "type" : "Feature" , "properties" : { "TOWN" : "BOSTON" , "TOWN_ID" : 35 , "OBJECTID" : 3317 , "STOP_NAME" : "Brookline Ave @ Park Dr" , "STOP_ID" : 1520}},
{ "_id" : { "$oid" : "58477e40c011636715aa5e89"} , "geometry" : { "coordinates" : [ -71.14254946563301 , 42.34356164850616] , "type" : "Point"} , "type" : "Feature" , "properties" : { "TOWN" : "BOSTON" , "TOWN_ID" : 35 , "OBJECTID" : 3318 , "STOP_NAME" : "Washington St @ Commonwealth Ave" , "STOP_ID" : 1295}},
{ "_id" : { "$oid" : "58477e40c011636715aa5e8a"} , "geometry" : { "coordinates" : [ -71.10250174844784 , 42.34345919060527] , "type" : "Point"} , "type" : "Feature" , "properties" : { "TOWN" : "BOSTON" , "TOWN_ID" : 35 , "OBJECTID" : 3319 , "STOP_NAME" : "Brookline Ave @ Boylston St" , "STOP_ID" : 9441}},
{ "_id" : { "$oid" : "58477e40c011636715aa5e8b"} , "geometry" : { "coordinates" : [ -71.06428139977336 , 42.343475153537995] , "type" : "Point"} , "type" : "Feature" , "properties" : { "TOWN" : "BOSTON" , "TOWN_ID" : 35 , "OBJECTID" : 3320 , "STOP_NAME" : "E Berkeley St @ Harrison Ave" , "STOP_ID" : 36538}},
{ "_id" : { "$oid" : "58477e40c011636715aa5e8c"} , "geometry" : { "coordinates" : [ -71.19044135068785 , 42.34398437098247] , "type" : "Point"} , "type" : "Feature" , "properties" : { "TOWN" : "NEWTON" , "TOWN_ID" : 207 , "OBJECTID" : 3321 , "STOP_NAME" : "790 Centre St" , "STOP_ID" : 8511}},
{ "_id" : { "$oid" : "58477e40c011636715aa5e8d"} , "geometry" : { "coordinates" : [ -71.07224660600951 , 42.34365079001054] , "type" : "Point"} , "type" : "Feature" , "properties" : { "TOWN" : "BOSTON" , "TOWN_ID" : 35 , "OBJECTID" : 3322 , "STOP_NAME" : "Tremont St @ Union Pk" , "STOP_ID" : 1246}},
{ "_id" : { "$oid" : "58477e40c011636715aa5e8e"} , "geometry" : { "coordinates" : [ -71.14320614480218 , 42.34393442466213] , "type" : "Point"} , "type" : "Feature" , "properties" : { "TOWN" : "BOSTON" , "TOWN_ID" : 35 , "OBJECTID" : 3323 , "STOP_NAME" : "Washington St @ Commonwealth Ave" , "STOP_ID" : 1273}},
{ "_id" : { "$oid" : "58477e40c011636715aa5e8f"} , "geometry" : { "coordinates" : [ -71.10334746081833 , 42.3438722506995] , "type" : "Point"} , "type" : "Feature" , "properties" : { "TOWN" : "BOSTON" , "TOWN_ID" : 35 , "OBJECTID" : 3324 , "STOP_NAME" : "Park Dr @ Fenway Sta" , "STOP_ID" : 11520}},
{ "_id" : { "$oid" : "58477e40c011636715aa5e90"} , "geometry" : { "coordinates" : [ -71.19034418466352 , 42.34421441639623] , "type" : "Point"} , "type" : "Feature" , "properties" : { "TOWN" : "NEWTON" , "TOWN_ID" : 207 , "OBJECTID" : 3325 , "STOP_NAME" : "785 Centre St" , "STOP_ID" : 8522}},
{ "_id" : { "$oid" : "58477e40c011636715aa5e91"} , "geometry" : { "coordinates" : [ -71.12447998440614 , 42.34406255875088] , "type" : "Point"} , "type" : "Feature" , "properties" : { "TOWN" : "BROOKLINE" , "TOWN_ID" : 46 , "OBJECTID" : 3326 , "STOP_NAME" : "Harvard St @ Shailer St" , "STOP_ID" : 1306}},
{ "_id" : { "$oid" : "58477e40c011636715aa5e92"} , "geometry" : { "coordinates" : [ -71.06602983168366 , 42.343858013922976] , "type" : "Point"} , "type" : "Feature" , "properties" : { "TOWN" : "BOSTON" , "TOWN_ID" : 35 , "OBJECTID" : 3327 , "STOP_NAME" : "Washington St @ E Berkeley St" , "STOP_ID" : 5098}},
{ "_id" : { "$oid" : "58477e40c011636715aa5e93"} , "geometry" : { "coordinates" : [ -71.0717039164125 , 42.3439233177265] , "type" : "Point"} , "type" : "Feature" , "properties" : { "TOWN" : "BOSTON" , "TOWN_ID" : 35 , "OBJECTID" : 3328 , "STOP_NAME" : "Tremont St @ Waltham St" , "STOP_ID" : 1236}},