[{ "_id" : { "$oid" : "58477e3dc011636714e41d47"} , "latitude" : "42.395428" , "name" : "Alewife" , "longitude" : "-71.142483"},
{ "_id" : { "$oid" : "58477e3dc011636714e41d48"} , "latitude" : "42.348701" , "name" : "Allston Street" , "longitude" : "-71.137955"},
{ "_id" : { "$oid" : "58477e3dc011636714e41d49"} , "latitude" : "42.330154" , "name" : "Andrew" , "longitude" : "-71.057655"},
{ "_id" : { "$oid" : "58477e3dc011636714e41d4a"} , "latitude" : "42.374262" , "name" : "Airport" , "longitude" : "-71.030395"},
{ "_id" : { "$oid" : "58477e3dc011636714e41d4b"} , "latitude" : "42.359784" , "name" : "Aquarium" , "longitude" : "-71.051652"},
{ "_id" : { "$oid" : "58477e3dc011636714e41d4c"} , "latitude" : "42.351902" , "name" : "Arlington" , "longitude" : "-71.070893"},
{ "_id" : { "$oid" : "58477e3dc011636714e41d4d"} , "latitude" : "42.284652" , "name" : "Ashmont" , "longitude" : "-71.064489"},
{ "_id" : { "$oid" : "58477e3dc011636714e41d4e"} , "latitude" : "42.392811" , "name" : "Assembly" , "longitude" : "-71.077257"},
{ "_id" : { "$oid" : "58477e3dc011636714e41d4f"} , "latitude" : "42.35182" , "name" : "Babcock Street" , "longitude" : "-71.12165"},
{ "_id" : { "$oid" : "58477e3dc011636714e41d50"} , "latitude" : "42.34735" , "name" : "Back Bay" , "longitude" : "-71.075727"},
{ "_id" : { "$oid" : "58477e3dc011636714e41d51"} , "latitude" : "42.330139" , "name" : "Back of the Hill" , "longitude" : "-71.111313"},
{ "_id" : { "$oid" : "58477e3dc011636714e41d52"} , "latitude" : "42.335846" , "name" : "Beaconsfield" , "longitude" : "-71.140823"},
{ "_id" : { "$oid" : "58477e3dc011636714e41d53"} , "latitude" : "42.339394" , "name" : "Washington Square" , "longitude" : "-71.13533"},
{ "_id" : { "$oid" : "58477e3dc011636714e41d54"} , "latitude" : "42.349293" , "name" : "Blandford Street" , "longitude" : "-71.100258"},
{ "_id" : { "$oid" : "58477e3dc011636714e41d55"} , "latitude" : "42.39754234" , "name" : "Beachmont" , "longitude" : "-70.99231944"},
{ "_id" : { "$oid" : "58477e3dc011636714e41d56"} , "latitude" : "42.340023" , "name" : "Brandon Hall" , "longitude" : "-71.129082"},
{ "_id" : { "$oid" : "58477e3dc011636714e41d57"} , "latitude" : "42.361365" , "name" : "Bowdoin" , "longitude" : "-71.062037"},
{ "_id" : { "$oid" : "58477e3dc011636714e41d58"} , "latitude" : "42.35302" , "name" : "Boylston" , "longitude" : "-71.06459"},
{ "_id" : { "$oid" : "58477e3dc011636714e41d59"} , "latitude" : "42.342622" , "name" : "Broadway" , "longitude" : "-71.056967"},
{ "_id" : { "$oid" : "58477e3dc011636714e41d5a"} , "latitude" : "42.351967" , "name" : "Packards Corner" , "longitude" : "-71.125031"},
{ "_id" : { "$oid" : "58477e3dc011636714e41d5b"} , "latitude" : "42.331333" , "name" : "Brookline Hills" , "longitude" : "-71.126999"},
{ "_id" : { "$oid" : "58477e3dc011636714e41d5c"} , "latitude" : "42.334229" , "name" : "Brigham Circle" , "longitude" : "-71.104609"},
{ "_id" : { "$oid" : "58477e3dc011636714e41d5d"} , "latitude" : "42.2078543" , "name" : "Braintree" , "longitude" : "-71.0011385"},
{ "_id" : { "$oid" : "58477e3dc011636714e41d5e"} , "latitude" : "42.350082" , "name" : "Boston Univ. Central" , "longitude" : "-71.106865"},
{ "_id" : { "$oid" : "58477e3dc011636714e41d5f"} , "latitude" : "42.349735" , "name" : "Boston Univ. East" , "longitude" : "-71.103889"},
{ "_id" : { "$oid" : "58477e3dc011636714e41d61"} , "latitude" : "42.350941" , "name" : "Boston Univ. West" , "longitude" : "-71.113876"},
{ "_id" : { "$oid" : "58477e3dc011636714e41d62"} , "latitude" : "42.332774" , "name" : "Brookline Village" , "longitude" : "-71.116296"},
{ "_id" : { "$oid" : "58477e3dc011636714e41d63"} , "latitude" : "42.267712" , "name" : "Capen Street" , "longitude" : "-71.087753"},
{ "_id" : { "$oid" : "58477e3dc011636714e41d64"} , "latitude" : "42.373622" , "name" : "Community College" , "longitude" : "-71.069533"},
{ "_id" : { "$oid" : "58477e3dc011636714e41d65"} , "latitude" : "42.279682" , "name" : "Cedar Grove" , "longitude" : "-71.060432"},
{ "_id" : { "$oid" : "58477e3dc011636714e41d66"} , "latitude" : "42.270027" , "name" : "Central Ave." , "longitude" : "-71.073334"},
{ "_id" : { "$oid" : "58477e3dc011636714e41d67"} , "latitude" : "42.326653" , "name" : "Chestnut Hill" , "longitude" : "-71.165314"},
{ "_id" : { "$oid" : "58477e3dc011636714e41d68"} , "latitude" : "42.338169" , "name" : "Chestnut Hill Ave." , "longitude" : "-71.15316"},
{ "_id" : { "$oid" : "58477e3dc011636714e41d69"} , "latitude" : "42.361166" , "name" : "Charles/MGH" , "longitude" : "-71.070628"},
{ "_id" : { "$oid" : "58477e3dc011636714e41d6a"} , "latitude" : "42.352547" , "name" : "Chinatown" , "longitude" : "-71.062752"},
{ "_id" : { "$oid" : "58477e3dc011636714e41d6b"} , "latitude" : "42.340805" , "name" : "Chiswick Road" , "longitude" : "-71.150711"},
{ "_id" : { "$oid" : "58477e3dc011636714e41d6c"} , "latitude" : "42.336142" , "name" : "Cleveland Circle" , "longitude" : "-71.149326"},
{ "_id" : { "$oid" : "58477e3dc011636714e41d6d"} , "latitude" : "42.365486" , "name" : "Central" , "longitude" : "-71.103802"},
{ "_id" : { "$oid" : "58477e3dc011636714e41d6f"} , "latitude" : "42.342116" , "name" : "Coolidge Corner" , "longitude" : "-71.121263"},
{ "_id" : { "$oid" : "58477e3dc011636714e41d70"} , "latitude" : "42.35245" , "name" : "Courthouse" , "longitude" : "-71.04685"},
{ "_id" : { "$oid" : "58477e3dc011636714e41d71"} , "latitude" : "42.39674" , "name" : "Davis" , "longitude" : "-71.121815"},
{ "_id" : { "$oid" : "58477e3dc011636714e41d72"} , "latitude" : "42.337807" , "name" : "Dean Road" , "longitude" : "-71.141853"},
{ "_id" : { "$oid" : "58477e3dc011636714e41d73"} , "latitude" : "42.355518000000004" , "name" : "Downtown Crossing" , "longitude" : "-71.060225"},
{ "_id" : { "$oid" : "58477e3dc011636714e41d74"} , "latitude" : "42.319023" , "name" : "Eliot" , "longitude" : "-71.216713"},
{ "_id" : { "$oid" : "58477e3dc011636714e41d75"} , "latitude" : "42.336971" , "name" : "Englewood Ave." , "longitude" : "-71.14566"},
{ "_id" : { "$oid" : "58477e3dc011636714e41d76"} , "latitude" : "42.339725" , "name" : "Fairbanks Street" , "longitude" : "-71.131073"},
{ "_id" : { "$oid" : "58477e3dc011636714e41d77"} , "latitude" : "42.333706" , "name" : "Fenwood Road" , "longitude" : "-71.105728"},
{ "_id" : { "$oid" : "58477e3dc011636714e41d78"} , "latitude" : "42.345394" , "name" : "Fenway" , "longitude" : "-71.104187"},
{ "_id" : { "$oid" : "58477e3dc011636714e41d79"} , "latitude" : "42.300093" , "name" : "Fields Corner" , "longitude" : "-71.061667"},
{ "_id" : { "$oid" : "58477e3dc011636714e41d7a"} , "latitude" : "42.300523" , "name" : "Forest Hills" , "longitude" : "-71.113686"},
{ "_id" : { "$oid" : "58477e3dc011636714e41d7b"} , "latitude" : "42.359705" , "name" : "Government Center" , "longitude" : "-71.059215"},
{ "_id" : { "$oid" : "58477e3dc011636714e41d7c"} , "latitude" : "42.348545" , "name" : "Griggs Street" , "longitude" : "-71.134949"},
{ "_id" : { "$oid" : "58477e3dc011636714e41d7d"} , "latitude" : "42.310525" , "name" : "Green Street" , "longitude" : "-71.107414"},
{ "_id" : { "$oid" : "58477e3dc011636714e41d7e"} , "latitude" : "42.363021" , "name" : "Haymarket" , "longitude" : "-71.05829"},
{ "_id" : { "$oid" : "58477e3dc011636714e41d7f"} , "latitude" : "42.373362" , "name" : "Harvard" , "longitude" : "-71.118956"},
{ "_id" : { "$oid" : "58477e3dc011636714e41d80"} , "latitude" : "42.350243" , "name" : "Harvard Ave." , "longitude" : "-71.131355"},
{ "_id" : { "$oid" : "58477e3dc011636714e41d81"} , "latitude" : "42.328681" , "name" : "Heath Street" , "longitude" : "-71.110559"},
{ "_id" : { "$oid" : "58477e3dc011636714e41d82"} , "latitude" : "42.344906" , "name" : "Hawes Street" , "longitude" : "-71.111145"},
{ "_id" : { "$oid" : "58477e3dc011636714e41d83"} , "latitude" : "42.347888" , "name" : "Hynes Convention Center" , "longitude" : "-71.087903"},
{ "_id" : { "$oid" : "58477e3dc011636714e41d84"} , "latitude" : "42.323132" , "name" : "Jackson Square" , "longitude" : "-71.099592"},
{ "_id" : { "$oid" : "58477e3dc011636714e41d85"} , "latitude" : "42.320685" , "name" : "JFK/Umass" , "longitude" : "-71.052391"},
{ "_id" : { "$oid" : "58477e3dc011636714e41d86"} , "latitude" : "42.348949" , "name" : "Kenmore" , "longitude" : "-71.095169"},
{ "_id" : { "$oid" : "58477e3dc011636714e41d87"} , "latitude" : "42.36249079" , "name" : "Kendall/MIT" , "longitude" : "-71.08617653"},
{ "_id" : { "$oid" : "58477e3dc011636714e41d88"} , "latitude" : "42.344074" , "name" : "Kent Street" , "longitude" : "-71.114197"},
{ "_id" : { "$oid" : "58477e3dc011636714e41d89"} , "latitude" : "42.340081" , "name" : "Boston College" , "longitude" : "-71.166769"},
{ "_id" : { "$oid" : "58477e3dc011636714e41d8a"} , "latitude" : "42.370772" , "name" : "Lechmere" , "longitude" : "-71.076536"},
{ "_id" : { "$oid" : "58477e3dc011636714e41d8b"} , "latitude" : "42.33596" , "name" : "Longwood Medical Area" , "longitude" : "-71.100052"},
{ "_id" : { "$oid" : "58477e3dc011636714e41d8c"} , "latitude" : "42.341145" , "name" : "Longwood" , "longitude" : "-71.110451"},
{ "_id" : { "$oid" : "58477e3dc011636714e41d8d"} , "latitude" : "42.341512" , "name" : "Massachusetts Ave." , "longitude" : "-71.083423"},
{ "_id" : { "$oid" : "58477e3dc011636714e41d8e"} , "latitude" : "42.267762" , "name" : "Mattapan" , "longitude" : "-71.092241"},
{ "_id" : { "$oid" : "58477e3dc011636714e41d8f"} , "latitude" : "42.337711" , "name" : "Museum of Fine Arts" , "longitude" : "-71.095512"},
{ "_id" : { "$oid" : "58477e3dc011636714e41d90"} , "latitude" : "42.270306" , "name" : "Milton" , "longitude" : "-71.067673"},
{ "_id" : { "$oid" : "58477e3dc011636714e41d91"} , "latitude" : "42.333195" , "name" : "Mission Park" , "longitude" : "-71.109756"},
{ "_id" : { "$oid" : "58477e3dc011636714e41d92"} , "latitude" : "42.426632" , "name" : "Malden Center" , "longitude" : "-71.07411"},
{ "_id" : { "$oid" : "58477e3dc011636714e41d93"} , "latitude" : "42.36911856" , "name" : "Maverick" , "longitude" : "-71.03952958"},
{ "_id" : { "$oid" : "58477e3dc011636714e41d94"} , "latitude" : "42.321735" , "name" : "Newton Highlands" , "longitude" : "-71.206116"},
{ "_id" : { "$oid" : "58477e3dc011636714e41d95"} , "latitude" : "42.329391" , "name" : "Newton Centre" , "longitude" : "-71.192429"},
{ "_id" : { "$oid" : "58477e3dc011636714e41d96"} , "latitude" : "42.365577" , "name" : "North Station" , "longitude" : "-71.06129"},
{ "_id" : { "$oid" : "58477e3dc011636714e41d97"} , "latitude" : "42.275275" , "name" : "North Quincy" , "longitude" : "-71.029583"},
{ "_id" : { "$oid" : "58477e3dc011636714e41d98"} , "latitude" : "42.340401" , "name" : "Northeastern University" , "longitude" : "-71.088806"},
{ "_id" : { "$oid" : "58477e3dc011636714e41d99"} , "latitude" : "42.43668" , "name" : "Oak Grove" , "longitude" : "-71.071097"},
{ "_id" : { "$oid" : "58477e3dc011636714e41d9a"} , "latitude" : "42.386867" , "name" : "Orient Heights" , "longitude" : "-71.004736"},
{ "_id" : { "$oid" : "58477e3dc011636714e41d9b"} , "latitude" : "42.35639457" , "name" : "Park Street" , "longitude" : "-71.0624242"},
{ "_id" : { "$oid" : "58477e3dc011636714e41d9c"} , "latitude" : "42.351521" , "name" : "Pleasant Street" , "longitude" : "-71.118889"},
{ "_id" : { "$oid" : "58477e3dc011636714e41d9d"} , "latitude" : "42.3884" , "name" : "Porter" , "longitude" : "-71.119149"},
{ "_id" : { "$oid" : "58477e3dc011636714e41d9e"} , "latitude" : "42.34557" , "name" : "Prudential" , "longitude" : "-71.081696"},
{ "_id" : { "$oid" : "58477e3dc011636714e41d9f"} , "latitude" : "42.233391" , "name" : "Quincy Adams" , "longitude" : "-71.007153"},
{ "_id" : { "$oid" : "58477e3dc011636714e41da0"} , "latitude" : "42.251809" , "name" : "Quincy Center" , "longitude" : "-71.005409"},
{ "_id" : { "$oid" : "58477e3dc011636714e41da1"} , "latitude" : "42.40784254" , "name" : "Revere Beach" , "longitude" : "-70.99253321"},
{ "_id" : { "$oid" : "58477e3dc011636714e41da3"} , "latitude" : "42.337059" , "name" : "Riverside" , "longitude" : "-71.251742"},
{ "_id" : { "$oid" : "58477e3dc011636714e41da4"} , "latitude" : "42.335027" , "name" : "Reservoir" , "longitude" : "-71.148952"},
{ "_id" : { "$oid" : "58477e3dc011636714e41da5"} , "latitude" : "42.336377" , "name" : "Ruggles" , "longitude" : "-71.088961"},
{ "_id" : { "$oid" : "58477e3dc011636714e41da6"} , "latitude" : "42.331684" , "name" : "Riverway" , "longitude" : "-71.111931"},
{ "_id" : { "$oid" : "58477e3dc011636714e41da7"} , "latitude" : "42.317062" , "name" : "Stony Brook" , "longitude" : "-71.104248"},
{ "_id" : { "$oid" : "58477e3dc011636714e41da8"} , "latitude" : "42.39050067" , "name" : "Suffolk Downs" , "longitude" : "-70.99712259"},
{ "_id" : { "$oid" : "58477e3dc011636714e41da9"} , "latitude" : "42.31129" , "name" : "Savin Hill" , "longitude" : "-71.053331"},
{ "_id" : { "$oid" : "58477e3dc011636714e41daa"} , "latitude" : "42.345974" , "name" : "Saint Mary Street" , "longitude" : "-71.107353"},
{ "_id" : { "$oid" : "58477e3dc011636714e41dab"} , "latitude" : "42.29312583" , "name" : "Shawmut" , "longitude" : "-71.06573796"},
{ "_id" : { "$oid" : "58477e3dc011636714e41dac"} , "latitude" : "42.3396" , "name" : "South Street" , "longitude" : "-71.157661"},
{ "_id" : { "$oid" : "58477e3dc011636714e41dad"} , "latitude" : "42.366664" , "name" : "Science Park" , "longitude" : "-71.067666"},
{ "_id" : { "$oid" : "58477e3dc011636714e41dae"} , "latitude" : "42.352271" , "name" : "South Station" , "longitude" : "-71.055242"},
{ "_id" : { "$oid" : "58477e3dc011636714e41daf"} , "latitude" : "42.358978" , "name" : "State Street" , "longitude" : "-71.057598"},
{ "_id" : { "$oid" : "58477e3dc011636714e41db0"} , "latitude" : "42.341614" , "name" : "Sutherland Road" , "longitude" : "-71.146202"},
{ "_id" : { "$oid" : "58477e3dc011636714e41db1"} , "latitude" : "42.3512" , "name" : "Saint Paul Street" , "longitude" : "-71.116104"},
{ "_id" : { "$oid" : "58477e3dc011636714e41db2"} , "latitude" : "42.343327" , "name" : "Saint Paul Street" , "longitude" : "-71.116997"},
{ "_id" : { "$oid" : "58477e3dc011636714e41db3"} , "latitude" : "42.383975" , "name" : "Sullivan Square" , "longitude" : "-71.076994"},
{ "_id" : { "$oid" : "58477e3dc011636714e41db4"} , "latitude" : "42.34111" , "name" : "Summit Ave." , "longitude" : "-71.12561"},
{ "_id" : { "$oid" : "58477e3dc011636714e41db5"} , "latitude" : "42.342687" , "name" : "Symphony" , "longitude" : "-71.085056"},
{ "_id" : { "$oid" : "58477e3dc011636714e41db6"} , "latitude" : "42.338459" , "name" : "Tappan Street" , "longitude" : "-71.138702"},
{ "_id" : { "$oid" : "58477e3dc011636714e41db7"} , "latitude" : "42.349662" , "name" : "Tufts Medical Center" , "longitude" : "-71.063917"},
{ "_id" : { "$oid" : "58477e3dc011636714e41db8"} , "latitude" : "42.268322" , "name" : "Valley Road" , "longitude" : "-71.081566"},
{ "_id" : { "$oid" : "58477e3dc011636714e41db9"} , "latitude" : "42.325943" , "name" : "Waban" , "longitude" : "-71.230728"},
{ "_id" : { "$oid" : "58477e3dc011636714e41dba"} , "latitude" : "42.343864" , "name" : "Washington Street" , "longitude" : "-71.142853"},
{ "_id" : { "$oid" : "58477e3dc011636714e41dbb"} , "latitude" : "42.40237" , "name" : "Wellington" , "longitude" : "-71.077082"},
{ "_id" : { "$oid" : "58477e3dc011636714e41dbc"} , "latitude" : "42.3796403" , "name" : "Wood Island" , "longitude" : "-71.02286539"},
{ "_id" : { "$oid" : "58477e3dc011636714e41dbd"} , "latitude" : "42.2665139" , "name" : "Wollaston" , "longitude" : "-71.0203369"},
{ "_id" : { "$oid" : "58477e3dc011636714e41dbe"} , "latitude" : "42.41342" , "name" : "Wonderland" , "longitude" : "-70.991648"},
{ "_id" : { "$oid" : "58477e3dc011636714e41dbf"} , "latitude" : "42.333374" , "name" : "Woodland" , "longitude" : "-71.244301"},
{ "_id" : { "$oid" : "58477e3dc011636714e41dc0"} , "latitude" : "42.348343" , "name" : "Warren Street" , "longitude" : "-71.140457"},
{ "_id" : { "$oid" : "58477e3dc011636714e41dc1"} , "latitude" : "42.34863" , "name" : "World Trade Center" , "longitude" : "-71.04246"},
{ "_id" : { "$oid" : "58477e3dc011636714e41dd2"} , "latitude" : "42.499402" , "name" : "TradeCenter 128" , "longitude" : "-71.162384"}]