{"response":{"row":{"row":[{"site":"Raymond Market","address":"351 Meridian St","area":"East Boston","state":"MA","zip":"2128","map_location":{"_human_address":"{\"address\":\"351 Meridian St\",\"city\":\"East Boston\",\"state\":\"MA\",\"zip\":\"2128\"}","_latitude":"42.378529687235925","_longitude":"-71.03915327522327","_needs_recoding":"false"},"__id":"10","__uuid":"0BAF265B-0B4D-45F9-930E-D0F2B6E51951","__position":"10","__address":"http://data.cityofboston.gov/resource/_4vcu-nshu/10"},{"site":"Las Costas Market","address":"184 Bremen Street","area":"East Boston","state":"MA","zip":"2128","map_location":{"_human_address":"{\"address\":\"184 Bremen Street\",\"city\":\"East Boston\",\"state\":\"MA\",\"zip\":\"2128\"}","_latitude":"42.37297187709487","_longitude":"-71.03417103118096","_needs_recoding":"false"},"__id":"13","__uuid":"1EAAA386-C75C-4850-882C-E20182567758","__position":"13","__address":"http://data.cityofboston.gov/resource/_4vcu-nshu/13"},{"site":"Essential Body Herbs","address":"1282 Blue Hill Ave","area":"Mattapan","state":"MA","zip":"2126","map_location":{"_human_address":"{\"address\":\"1282 Blue Hill Ave\",\"city\":\"Mattapan\",\"state\":\"MA\",\"zip\":\"2126\"}","_latitude":"42.28020680977255","_longitude":"-71.09266293596664","_needs_recoding":"false"},"__id":"15","__uuid":"208233FD-4029-49F4-AB6A-F787A9BE08BB","__position":"15","__address":"http://data.cityofboston.gov/resource/_4vcu-nshu/15"},{"site":"Tedeschi Food Shops","address":"509 Cambridge St","area":"Allston","state":"MA","zip":"2134","map_location":{"_human_address":"{\"address\":\"509 Cambridge St\",\"city\":\"Allston\",\"state\":\"MA\",\"zip\":\"2134\"}","_latitude":"42.35322276533145","_longitude":"-71.13833950183476","_needs_recoding":"false"},"__id":"30","__uuid":"21FBC5D3-97C3-4D7E-B0D6-F1070305BE2F","__position":"30","__address":"http://data.cityofboston.gov/resource/_4vcu-nshu/30"},{"site":"Mi Tierra Market","address":"71 Meridian St","area":"East Boston","state":"MA","zip":"2128","map_location":{"_human_address":"{\"address\":\"71 Meridian St\",\"city\":\"East Boston\",\"state\":\"MA\",\"zip\":\"2128\"}","_latitude":"42.371782749757934","_longitude":"-71.03892842022054","_needs_recoding":"false"},"__id":"11","__uuid":"22F0CF64-C420-4FC9-A269-7E2A48C3E12C","__position":"11","__address":"http://data.cityofboston.gov/resource/_4vcu-nshu/11"},{"site":"Grove Hill Convenience Market","address":"479 Blue Hill Ave","area":"Dorchester","state":"MA","zip":"2121","map_location":{"_human_address":"{\"address\":\"479 Blue Hill Ave\",\"city\":\"Dorchester\",\"state\":\"MA\",\"zip\":\"2121\"}","_latitude":"42.30866118751336","_longitude":"-71.08314919016571","_needs_recoding":"false"},"__id":"142","__uuid":"008AAAB2-98B1-4F5A-8879-422CF1ECEA02","__position":"142","__address":"http://data.cityofboston.gov/resource/_4vcu-nshu/142"},{"site":"Downtown Brazil","address":"878 South St","area":"Roslindale","state":"MA","zip":"2131","map_location":{"_human_address":"{\"address\":\"878 South St\",\"city\":\"Roslindale\",\"state\":\"MA\",\"zip\":\"2131\"}","_latitude":"42.28878634193211","_longitude":"-71.13385188490855","_needs_recoding":"false"},"__id":"214","__uuid":"015BC092-3B12-496D-B891-D672D780BBFA","__position":"214","__address":"http://data.cityofboston.gov/resource/_4vcu-nshu/214"},{"site":"Our Neighborhood Mini Mart","address":"482 Washington St","area":"Dorchester Ctr","state":"MA","zip":"2124","map_location":{"_human_address":"{\"address\":\"482 Washington St\",\"city\":\"Dorchester Ctr\",\"state\":\"MA\",\"zip\":\"2124\"}","_latitude":"42.29458781253953","_longitude":"-71.07191572292744","_needs_recoding":"false"},"__id":"168","__uuid":"024D21EF-0BFF-456B-8277-D06F81249DF5","__position":"168","__address":"http://data.cityofboston.gov/resource/_4vcu-nshu/168"},{"site":"A & R Food Svc","address":"253 Summer St","area":"Boston","state":"MA","zip":"2210","map_location":{"_human_address":"{\"address\":\"253 Summer St\",\"city\":\"Boston\",\"state\":\"MA\",\"zip\":\"2210\"}","_latitude":"42.351535753550934","_longitude":"-71.05311686501481","_needs_recoding":"false"},"__id":"51","__uuid":"046A64D2-60A5-490A-87D1-833BE737A08E","__position":"51","__address":"http://data.cityofboston.gov/resource/_4vcu-nshu/51"},{"site":"Penas Market","address":"1055 Tremont St","area":"Roxbury Crossing","state":"MA","zip":"2120","map_location":{"_human_address":"{\"address\":\"1055 Tremont St\",\"city\":\"Roxbury Crossing\",\"state\":\"MA\",\"zip\":\"2120\"}","_latitude":"42.336261551858854","_longitude":"-71.08586406142513","_needs_recoding":"false"},"__id":"232","__uuid":"04C43317-8033-4DB4-AFDC-AC4573B80F6C","__position":"232","__address":"http://data.cityofboston.gov/resource/_4vcu-nshu/232"},{"site":"7-Eleven","address":"584 Washington St","area":"Brighton","state":"MA","zip":"2135","map_location":{"_human_address":"{\"address\":\"584 Washington St\",\"city\":\"Brighton\",\"state\":\"MA\",\"zip\":\"2135\"}","_latitude":"42.35029097551592","_longitude":"-71.16571486440665","_needs_recoding":"false"},"__id":"109","__uuid":"059B2EA2-CB20-4537-8DA9-5EC02ED30C40","__position":"109","__address":"http://data.cityofboston.gov/resource/_4vcu-nshu/109"},{"site":"Super Stop & Shop","address":"301 Centre St","area":"Jamaica Plain","state":"MA","zip":"2130","map_location":{"_human_address":"{\"address\":\"301 Centre St\",\"city\":\"Jamaica Plain\",\"state\":\"MA\",\"zip\":\"2130\"}","_latitude":"42.32291651507302","_longitude":"-71.10371343753673","_needs_recoding":"false"},"__id":"204","__uuid":"07616869-8081-4B79-8BBF-A18C6D75A9F0","__position":"204","__address":"http://data.cityofboston.gov/resource/_4vcu-nshu/204"},{"site":"Upbeat Convenience","address":"613 Park St","area":"Dorchester Ctr","state":"MA","zip":"2124","map_location":{"_human_address":"{\"address\":\"613 Park St\",\"city\":\"Dorchester Ctr\",\"state\":\"MA\",\"zip\":\"2124\"}","_latitude":"42.29447905037756","_longitude":"-71.07791405468612","_needs_recoding":"false"},"__id":"174","__uuid":"08E26EDD-393F-488A-B8B0-0EED03B1E1BB","__position":"174","__address":"http://data.cityofboston.gov/resource/_4vcu-nshu/174"},{"site":"T & D Market","address":"4545 Washington St","area":"Roslindale","state":"MA","zip":"2131","map_location":{"_human_address":"{\"address\":\"4545 Washington St\",\"city\":\"Roslindale\",\"state\":\"MA\",\"zip\":\"2131\"}","_latitude":"42.278175816233826","_longitude":"-71.13723739125055","_needs_recoding":"false"},"__id":"216","__uuid":"09B4ACAD-0C6B-4AE8-8B1F-5B83AF48210E","__position":"216","__address":"http://data.cityofboston.gov/resource/_4vcu-nshu/216"},{"site":"Store 24","address":"1 1st Ave # 7","area":"Charlestown","state":"MA","zip":"2129","map_location":{"_human_address":"{\"address\":\"1 1st Ave # 7\",\"city\":\"Charlestown\",\"state\":\"MA\",\"zip\":\"2129\"}","_latitude":"42.37355881866903","_longitude":"-71.05678194632321","_needs_recoding":"false"},"__id":"123","__uuid":"0A8C7B03-D7CD-45A8-ABC7-59B0D80CD293","__position":"123","__address":"http://data.cityofboston.gov/resource/_4vcu-nshu/123"},{"site":"Grocery Associates","address":"82 Hillside St","area":"Roxbury Crossing","state":"MA","zip":"2120","map_location":{"_human_address":"{\"address\":\"82 Hillside St\",\"city\":\"Roxbury Crossing\",\"state\":\"MA\",\"zip\":\"2120\"}","_latitude":"42.33044842713316","_longitude":"-71.10303802994673","_needs_recoding":"false"},"__id":"231","__uuid":"0AFC4A27-3B4B-4B5E-A83D-6E1F5B36E619","__position":"231","__address":"http://data.cityofboston.gov/resource/_4vcu-nshu/231"},{"site":"Andrew Square Convenience","address":"390 Dorchester St # A","area":"South Boston","state":"MA","zip":"2127","map_location":{"_human_address":"{\"address\":\"390 Dorchester St # A\",\"city\":\"South Boston\",\"state\":\"MA\",\"zip\":\"2127\"}","_latitude":"42.32984039256962","_longitude":"-71.05646522428731","_needs_recoding":"false"},"__id":"233","__uuid":"0BFE4030-23CD-4742-8293-C392CB86891B","__position":"233","__address":"http://data.cityofboston.gov/resource/_4vcu-nshu/233"},{"site":"7-Eleven","address":"730 William T Morrissey Blvd","area":"Dorchester","state":"MA","zip":"2122","map_location":{"_human_address":"{\"address\":\"730 William T Morrissey Blvd\",\"city\":\"Dorchester\",\"state\":\"MA\",\"zip\":\"2122\"}","_latitude":"42.296196755453536","_longitude":"-71.04806555653363","_needs_recoding":"false"},"__id":"128","__uuid":"0C0181D8-FFD1-4DF3-AD21-876FDC33E2B0","__position":"128","__address":"http://data.cityofboston.gov/resource/_4vcu-nshu/128"},{"site":"Val's Place","address":"10 Causeway St","area":"Boston","state":"MA","zip":"2222","map_location":{"_human_address":"{\"address\":\"10 Causeway St\",\"city\":\"Boston\",\"state\":\"MA\",\"zip\":\"2222\"}","_latitude":"42.364426269502104","_longitude":"-71.06318792395918","_needs_recoding":"false"},"__id":"102","__uuid":"0C584E70-854A-4D1B-9FCB-D8A164F3EA3E","__position":"102","__address":"http://data.cityofboston.gov/resource/_4vcu-nshu/102"},{"site":"Priya Food Market","address":"399 Saratoga St","area":"Boston","state":"MA","zip":"2128","map_location":{"_human_address":"{\"address\":\"399 Saratoga St\",\"city\":\"Boston\",\"state\":\"MA\",\"zip\":\"2128\"}","_latitude":"42.379047252285524","_longitude":"-71.02972119705177","_needs_recoding":"false"},"__id":"89","__uuid":"0CA91EAB-84F9-4132-8D98-153EE00FA890","__position":"89","__address":"http://data.cityofboston.gov/resource/_4vcu-nshu/89"},{"site":"Blue Hill Market","address":"766 Blue Hill Ave","area":"Dorchester Ctr","state":"MA","zip":"2124","map_location":{"_human_address":"{\"address\":\"766 Blue Hill Ave\",\"city\":\"Dorchester Ctr\",\"state\":\"MA\",\"zip\":\"2124\"}","_latitude":"42.29854135987861","_longitude":"-71.086617565403","_needs_recoding":"false"},"__id":"162","__uuid":"10592F79-8BF5-42DC-A822-14E2978067AB","__position":"162","__address":"http://data.cityofboston.gov/resource/_4vcu-nshu/162"},{"site":"Primo's Convenience Store","address":"24 Joy St","area":"Boston","state":"MA","zip":"2114","map_location":{"_human_address":"{\"address\":\"24 Joy St\",\"city\":\"Boston\",\"state\":\"MA\",\"zip\":\"2114\"}","_latitude":"42.35932916191041","_longitude":"-71.06506274288739","_needs_recoding":"false"},"__id":"88","__uuid":"110D8288-0B9C-4029-AF07-EB416A39F0F9","__position":"88","__address":"http://data.cityofboston.gov/resource/_4vcu-nshu/88"},{"site":"Matos Market","address":"140 Norfolk St","area":"Dorchester Ctr","state":"MA","zip":"2124","map_location":{"_human_address":"{\"address\":\"140 Norfolk St\",\"city\":\"Dorchester Ctr\",\"state\":\"MA\",\"zip\":\"2124\"}","_latitude":"42.287878026682506","_longitude":"-71.07801298010935","_needs_recoding":"false"},"__id":"166","__uuid":"1286EB10-24BF-4BB1-B6DC-F0BDC16E2411","__position":"166","__address":"http://data.cityofboston.gov/resource/_4vcu-nshu/166"},{"site":"7-Eleven","address":"125 Tremont St","area":"Boston","state":"MA","zip":"2108","map_location":{"_human_address":"{\"address\":\"125 Tremont St\",\"city\":\"Boston\",\"state\":\"MA\",\"zip\":\"2108\"}","_latitude":"42.3567236987566","_longitude":"-71.06178868150944","_needs_recoding":"false"},"__id":"34","__uuid":"138A0BEA-2963-4E1C-9301-E4A92A463452","__position":"34","__address":"http://data.cityofboston.gov/resource/_4vcu-nshu/34"},{"site":"7-Eleven","address":"70 E India Row","area":"Boston","state":"MA","zip":"2110","map_location":{"_human_address":"{\"address\":\"70 E India Row\",\"city\":\"Boston\",\"state\":\"MA\",\"zip\":\"2110\"}","_latitude":"42.357980178866455","_longitude":"-71.05081748194328","_needs_recoding":"false"},"__id":"36","__uuid":"13A997D1-E827-4933-A726-0F9130850124","__position":"36","__address":"http://data.cityofboston.gov/resource/_4vcu-nshu/36"},{"site":"Monica's Mercato","address":"130 Salem St","area":"Boston","state":"MA","zip":"2113","map_location":{"_human_address":"{\"address\":\"130 Salem St\",\"city\":\"Boston\",\"state\":\"MA\",\"zip\":\"2113\"}","_latitude":"42.36510280933851","_longitude":"-71.05552992937686","_needs_recoding":"false"},"__id":"84","__uuid":"15D029E8-9F23-48CD-9CD6-A310E73851B3","__position":"84","__address":"http://data.cityofboston.gov/resource/_4vcu-nshu/84"},{"site":"On the Run","address":"85 Southampton St","area":"Roxbury","state":"MA","zip":"2118","map_location":{"_human_address":"{\"address\":\"85 Southampton St\",\"city\":\"Roxbury\",\"state\":\"MA\",\"zip\":\"2118\"}","_latitude":"42.33213469829626","_longitude":"-71.07055805784337","_needs_recoding":"false"},"__id":"229","__uuid":"174BBC80-8F80-439E-8F42-99BCE7747699","__position":"229","__address":"http://data.cityofboston.gov/resource/_4vcu-nshu/229"},{"site":"Sullivan's Store","address":"2 Sullivan St","area":"Charlestown","state":"MA","zip":"2129","map_location":{"_human_address":"{\"address\":\"2 Sullivan St\",\"city\":\"Charlestown\",\"state\":\"MA\",\"zip\":\"2129\"}","_latitude":"42.377817621972895","_longitude":"-71.06730610171155","_needs_recoding":"false"},"__id":"125","__uuid":"183D0A56-546D-4173-B16B-F6399077AEC1","__position":"125","__address":"http://data.cityofboston.gov/resource/_4vcu-nshu/125"},{"site":"Franco's Place","address":"160 Trenton St","area":"East Boston","state":"MA","zip":"2128","map_location":{"_human_address":"{\"address\":\"160 Trenton St\",\"city\":\"East Boston\",\"state\":\"MA\",\"zip\":\"2128\"}","_latitude":"42.380101188977534","_longitude":"-71.03338023355548","_needs_recoding":"false"},"__id":"178","__uuid":"18448227-D3E4-452E-8863-E50E079C082E","__position":"178","__address":"http://data.cityofboston.gov/resource/_4vcu-nshu/178"},{"site":"Adam's Convenience Store","address":"295 Adams St","area":"Dorchester","state":"MA","zip":"2122","map_location":{"_human_address":"{\"address\":\"295 Adams St\",\"city\":\"Dorchester\",\"state\":\"MA\",\"zip\":\"2122\"}","_latitude":"42.29916026259752","_longitude":"-71.05805971458462","_needs_recoding":"false"},"__id":"129","__uuid":"1874BFB6-1953-458B-8558-0843B8BB7B92","__position":"129","__address":"http://data.cityofboston.gov/resource/_4vcu-nshu/129"},{"site":"Neighborhood Convenience Str","address":"994 Hyde Park Ave","area":"Hyde Park","state":"MA","zip":"2136","map_location":{"_human_address":"{\"address\":\"994 Hyde Park Ave\",\"city\":\"Hyde Park\",\"state\":\"MA\",\"zip\":\"2136\"}","_latitude":"42.265565847135576","_longitude":"-71.1210905053128","_needs_recoding":"false"},"__id":"191","__uuid":"1A42D2CA-2B30-4391-8F36-EE18ACE89E45","__position":"191","__address":"http://data.cityofboston.gov/resource/_4vcu-nshu/191"},{"site":"Lee's Market","address":"1585 Commonwealth Ave","area":"Brighton","state":"MA","zip":"2135","map_location":{"_human_address":"{\"address\":\"1585 Commonwealth Ave\",\"city\":\"Brighton\",\"state\":\"MA\",\"zip\":\"2135\"}","_latitude":"42.34445040424109","_longitude":"-71.1428195261644","_needs_recoding":"false"},"__id":"115","__uuid":"1A6871FA-6E72-4863-A90E-B85E056C7BB8","__position":"115","__address":"http://data.cityofboston.gov/resource/_4vcu-nshu/115"},{"site":"Mirisolas","address":"200 L St","area":"South Boston","state":"MA","zip":"2127","map_location":{"_human_address":"{\"address\":\"200 L St\",\"city\":\"South Boston\",\"state\":\"MA\",\"zip\":\"2127\"}","_latitude":"42.331369240019455","_longitude":"-71.03522323795522","_needs_recoding":"false"},"__id":"237","__uuid":"1D2BC46E-7487-417E-94FC-C26C1ADE16A1","__position":"237","__address":"http://data.cityofboston.gov/resource/_4vcu-nshu/237"},{"site":"Market St. Gulf","address":"195 Market St","area":"Brighton","state":"MA","zip":"2135","map_location":{"_human_address":"{\"address\":\"195 Market St\",\"city\":\"Brighton\",\"state\":\"MA\",\"zip\":\"2135\"}","_latitude":"42.356019656842534","_longitude":"-71.14921230516899","_needs_recoding":"false"},"__id":"117","__uuid":"1D5854AF-2E4D-4882-A8B3-820FC91089F5","__position":"117","__address":"http://data.cityofboston.gov/resource/_4vcu-nshu/117"},{"site":"Codman Square Mkt Grocery Stor","address":"573 Washington St","area":"Dorchester Ctr","state":"MA","zip":"2124","map_location":{"_human_address":"{\"address\":\"573 Washington St\",\"city\":\"Dorchester Ctr\",\"state\":\"MA\",\"zip\":\"2124\"}","_latitude":"42.29164618598526","_longitude":"-71.07175369878541","_needs_recoding":"false"},"__id":"163","__uuid":"207BE343-8A78-4739-ACC4-4C8C59689FE5","__position":"163","__address":"http://data.cityofboston.gov/resource/_4vcu-nshu/163"},{"site":"Value 2000","address":"507 Washington St","area":"Boston","state":"MA","zip":"2111","map_location":{"_human_address":"{\"address\":\"507 Washington St\",\"city\":\"Boston\",\"state\":\"MA\",\"zip\":\"2111\"}","_latitude":"42.35440987041011","_longitude":"-71.06159135985433","_needs_recoding":"false"},"__id":"103","__uuid":"23289538-1709-446D-BF0D-6974C72F2790","__position":"103","__address":"http://data.cityofboston.gov/resource/_4vcu-nshu/103"},{"site":"7-Eleven","address":"508 Park Dr","area":"Boston","state":"MA","zip":"2215","map_location":{"_human_address":"{\"address\":\"508 Park Dr\",\"city\":\"Boston\",\"state\":\"MA\",\"zip\":\"2215\"}","_latitude":"42.347555753891584","_longitude":"-71.1056310775135","_needs_recoding":"false"},"__id":"49","__uuid":"24016ABE-AC8D-4297-BAE3-0955E424C161","__position":"49","__address":"http://data.cityofboston.gov/resource/_4vcu-nshu/49"},{"site":"Condor Market East Boston","address":" 655 Saratoga Street","area":"East Boston","state":"MA","zip":"2128","map_location":{"_human_address":"{\"address\":\"655 Saratoga Street\",\"city\":\"East Boston\",\"state\":\"MA\",\"zip\":\"2128\"}","_latitude":"42.38236979230106","_longitude":"-71.0208610651473","_needs_recoding":"false"},"__id":"12","__uuid":"248B72EA-BB39-4331-9A9C-A2C1288AD662","__position":"12","__address":"http://data.cityofboston.gov/resource/_4vcu-nshu/12"},{"site":"Anthony Market","address":"407 Meridian St","area":"Boston","state":"MA","zip":"2128","map_location":{"_human_address":"{\"address\":\"407 Meridian St\",\"city\":\"Boston\",\"state\":\"MA\",\"zip\":\"2128\"}","_latitude":"42.38044800470189","_longitude":"-71.03918520466857","_needs_recoding":"false"},"__id":"52","__uuid":"26A0ABAF-EAB5-4117-98E1-C301F2AC834A","__position":"52","__address":"http://data.cityofboston.gov/resource/_4vcu-nshu/52"},{"site":"Store 24","address":"177 State St # A","area":"Boston","state":"MA","zip":"2109","map_location":{"_human_address":"{\"address\":\"177 State St # A\",\"city\":\"Boston\",\"state\":\"MA\",\"zip\":\"2109\"}","_latitude":"42.359341980573895","_longitude":"-71.05316659277749","_needs_recoding":"false"},"__id":"94","__uuid":"285DD478-A60C-4500-B342-219BECC94EF5","__position":"94","__address":"http://data.cityofboston.gov/resource/_4vcu-nshu/94"},{"site":"Tedeschi Food Shops","address":"1580 Dorchester Ave","area":"Dorchester","state":"MA","zip":"2122","map_location":{"_human_address":"{\"address\":\"1580 Dorchester Ave\",\"city\":\"Dorchester\",\"state\":\"MA\",\"zip\":\"2122\"}","_latitude":"42.29668720377279","_longitude":"-71.06111873390283","_needs_recoding":"false"},"__id":"156","__uuid":"2B8651D6-B86E-4759-88B7-EB20B8099B8F","__position":"156","__address":"http://data.cityofboston.gov/resource/_4vcu-nshu/156"},{"site":"Sulgrave Inc","address":"60 State St","area":"Boston","state":"MA","zip":"2109","map_location":{"_human_address":"{\"address\":\"60 State St\",\"city\":\"Boston\",\"state\":\"MA\",\"zip\":\"2109\"}","_latitude":"42.35892446699722","_longitude":"-71.05622240733942","_needs_recoding":"false"},"__id":"98","__uuid":"2C6A60B9-7172-4E7C-8DFD-6F79A1F84ADF","__position":"98","__address":"http://data.cityofboston.gov/resource/_4vcu-nshu/98"},{"site":"Super Stop & Shop","address":"60 Everett St","area":"Allston","state":"MA","zip":"2134","map_location":{"_human_address":"{\"address\":\"60 Everett St\",\"city\":\"Allston\",\"state\":\"MA\",\"zip\":\"2134\"}","_latitude":"42.35598279983284","_longitude":"-71.13857259073886","_needs_recoding":"false"},"__id":"28","__uuid":"2C6E3CC6-2C19-4CF0-95C3-28376E5E9767","__position":"28","__address":"http://data.cityofboston.gov/resource/_4vcu-nshu/28"},{"site":"7-Eleven","address":"121 Jersey St","area":"Boston","state":"MA","zip":"2215","map_location":{"_human_address":"{\"address\":\"121 Jersey St\",\"city\":\"Boston\",\"state\":\"MA\",\"zip\":\"2215\"}","_latitude":"42.3427309376654","_longitude":"-71.09700270945415","_needs_recoding":"false"},"__id":"48","__uuid":"2C80B727-EF06-4BCB-ADF1-BC301320C09C","__position":"48","__address":"http://data.cityofboston.gov/resource/_4vcu-nshu/48"},{"site":"D & D Convenience Store","address":"1002 Dorchester Ave","area":"Dorchester","state":"MA","zip":"2125","map_location":{"_human_address":"{\"address\":\"1002 Dorchester Ave\",\"city\":\"Dorchester\",\"state\":\"MA\",\"zip\":\"2125\"}","_latitude":"42.3165079916044","_longitude":"-71.05660927439871","_needs_recoding":"false"},"__id":"139","__uuid":"2CB1BD7C-077D-431F-8974-2FE8E6D95C55","__position":"139","__address":"http://data.cityofboston.gov/resource/_4vcu-nshu/139"},{"site":"Five Corners Mini Mart","address":"1246 Dorchester Ave","area":"Dorchester","state":"MA","zip":"2125","map_location":{"_human_address":"{\"address\":\"1246 Dorchester Ave\",\"city\":\"Dorchester\",\"state\":\"MA\",\"zip\":\"2125\"}","_latitude":"42.308036000782806","_longitude":"-71.0582674092296","_needs_recoding":"false"},"__id":"140","__uuid":"2F105AD8-A929-42BD-9B7D-CC3D1FB00079","__position":"140","__address":"http://data.cityofboston.gov/resource/_4vcu-nshu/140"},{"site":"Sobrino Market","address":"416 Geneva Avenue","area":"Dorchester","state":"MA","zip":"2122","map_location":{"_human_address":"{\"address\":\"416 Geneva Avenue\",\"city\":\"Dorchester\",\"state\":\"MA\",\"zip\":\"2122\"}","_latitude":"42.30084625034499","_longitude":"-71.06706823101274","_needs_recoding":"false"},"__id":"4","__uuid":"30BB88A3-0A0B-48FD-A11E-EB213BCC5EB4","__position":"4","__address":"http://data.cityofboston.gov/resource/_4vcu-nshu/4"},{"site":"Stop N Gas Inc","address":"970 Washington St","area":"Dorchester Ctr","state":"MA","zip":"2124","map_location":{"_human_address":"{\"address\":\"970 Washington St\",\"city\":\"Dorchester Ctr\",\"state\":\"MA\",\"zip\":\"2124\"}","_latitude":"42.279118630117125","_longitude":"-71.06965827845715","_needs_recoding":"false"},"__id":"171","__uuid":"31670FB3-F3B0-49DF-A9EE-A3F45F2332AC","__position":"171","__address":"http://data.cityofboston.gov/resource/_4vcu-nshu/171"},{"site":"T & J Convenience Store","address":"80 Welles Ave","area":"Dorchester Ctr","state":"MA","zip":"2124","map_location":{"_human_address":"{\"address\":\"80 Welles Ave\",\"city\":\"Dorchester Ctr\",\"state\":\"MA\",\"zip\":\"2124\"}","_latitude":"42.289173261369555","_longitude":"-71.06687420038683","_needs_recoding":"false"},"__id":"173","__uuid":"31E87EE9-D087-48B1-87CF-5730BC486C07","__position":"173","__address":"http://data.cityofboston.gov/resource/_4vcu-nshu/173"},{"site":"N & M Market","address":"2359 Washington St","area":"Roxbury","state":"MA","zip":"2119","map_location":{"_human_address":"{\"address\":\"2359 Washington St\",\"city\":\"Roxbury\",\"state\":\"MA\",\"zip\":\"2119\"}","_latitude":"42.329444690876755","_longitude":"-71.0847489021088","_needs_recoding":"false"},"__id":"227","__uuid":"333966D5-339B-4AA3-B6FB-C19AAC2750C1","__position":"227","__address":"http://data.cityofboston.gov/resource/_4vcu-nshu/227"},{"site":"7-Eleven","address":"50 Summer St","area":"Boston","state":"MA","zip":"2110","map_location":{"_human_address":"{\"address\":\"50 Summer St\",\"city\":\"Boston\",\"state\":\"MA\",\"zip\":\"2110\"}","_latitude":"42.35449980261302","_longitude":"-71.05920815647664","_needs_recoding":"false"},"__id":"35","__uuid":"37121966-D5F6-4A1E-BCDF-757DC3D15ED8","__position":"35","__address":"http://data.cityofboston.gov/resource/_4vcu-nshu/35"},{"site":"Store 24","address":"122 Cambridge St","area":"Boston","state":"MA","zip":"2114","map_location":{"_human_address":"{\"address\":\"122 Cambridge St\",\"city\":\"Boston\",\"state\":\"MA\",\"zip\":\"2114\"}","_latitude":"42.36112694251017","_longitude":"-71.06349346320631","_needs_recoding":"false"},"__id":"95","__uuid":"38402DE4-21BD-40A1-94B3-3A6B938C3E5D","__position":"95","__address":"http://data.cityofboston.gov/resource/_4vcu-nshu/95"},{"site":"7-Eleven","address":"673 E BRd.way","area":"Boston","state":"MA","zip":"2127","map_location":{"_human_address":"{\"address\":\"673 E BRd.way\",\"city\":\"Boston\",\"state\":\"MA\",\"zip\":\"2127\"}","_latitude":"42.35862999957499","_longitude":"-71.05669999960514","_needs_recoding":"false"},"__id":"46","__uuid":"3B34E6D7-C666-4815-B1A7-605948F14C73","__position":"46","__address":"http://data.cityofboston.gov/resource/_4vcu-nshu/46"},{"site":"Lee's Store","address":"982 Dorchester Ave","area":"Dorchester","state":"MA","zip":"2125","map_location":{"_human_address":"{\"address\":\"982 Dorchester Ave\",\"city\":\"Dorchester\",\"state\":\"MA\",\"zip\":\"2125\"}","_latitude":"42.317099517516155","_longitude":"-71.0566249062072","_needs_recoding":"false"},"__id":"145","__uuid":"3C68F2A3-6A55-4722-A066-B1907D84A3A7","__position":"145","__address":"http://data.cityofboston.gov/resource/_4vcu-nshu/145"},{"site":"Store 24","address":"140 Main St","area":"Charlestown","state":"MA","zip":"2129","map_location":{"_human_address":"{\"address\":\"140 Main St\",\"city\":\"Charlestown\",\"state\":\"MA\",\"zip\":\"2129\"}","_latitude":"42.374950385559316","_longitude":"-71.06398355645223","_needs_recoding":"false"},"__id":"124","__uuid":"3CB5C700-5D3C-424C-875E-50B9CFFD8A5D","__position":"124","__address":"http://data.cityofboston.gov/resource/_4vcu-nshu/124"},{"site":"Brazilian Corner","address":"192 Brighton Ave","area":"Allston","state":"MA","zip":"2134","map_location":{"_human_address":"{\"address\":\"192 Brighton Ave\",\"city\":\"Allston\",\"state\":\"MA\",\"zip\":\"2134\"}","_latitude":"42.35322276533145","_longitude":"-71.13419362727973","_needs_recoding":"false"},"__id":"22","__uuid":"3F7B5F62-8838-4FBC-9C5D-7162BDD2ADB3","__position":"22","__address":"http://data.cityofboston.gov/resource/_4vcu-nshu/22"},{"site":"White Hen Pantry","address":"462 Washington St","area":"Brighton","state":"MA","zip":"2135","map_location":{"_human_address":"{\"address\":\"462 Washington St\",\"city\":\"Brighton\",\"state\":\"MA\",\"zip\":\"2135\"}","_latitude":"42.34891501281106","_longitude":"-71.15883505088254","_needs_recoding":"false"},"__id":"120","__uuid":"3F8196F4-26E8-4BE1-8807-D5658307ADC9","__position":"120","__address":"http://data.cityofboston.gov/resource/_4vcu-nshu/120"},{"site":"Tedeschi Food Shops","address":"50 Staniford St","area":"Boston","state":"MA","zip":"2114","map_location":{"_human_address":"{\"address\":\"50 Staniford St\",\"city\":\"Boston\",\"state\":\"MA\",\"zip\":\"2114\"}","_latitude":"42.36260771511021","_longitude":"-71.06391412228886","_needs_recoding":"false"},"__id":"101","__uuid":"408C4465-84B6-46A9-90CF-BA4CDE79E0D7","__position":"101","__address":"http://data.cityofboston.gov/resource/_4vcu-nshu/101"},{"site":"Store 24","address":"1219 Commonwealth Ave","area":"Allston","state":"MA","zip":"2134","map_location":{"_human_address":"{\"address\":\"1219 Commonwealth Ave\",\"city\":\"Allston\",\"state\":\"MA\",\"zip\":\"2134\"}","_latitude":"42.350709905888216","_longitude":"-71.13062400024394","_needs_recoding":"false"},"__id":"26","__uuid":"414092B3-1609-48B4-AA36-65ABB27DBB84","__position":"26","__address":"http://data.cityofboston.gov/resource/_4vcu-nshu/26"},{"site":"Campus Convenience","address":"541 Commonwealth Ave","area":"Boston","state":"MA","zip":"2215","map_location":{"_human_address":"{\"address\":\"541 Commonwealth Ave\",\"city\":\"Boston\",\"state\":\"MA\",\"zip\":\"2215\"}","_latitude":"42.34899595179371","_longitude":"-71.0969796817073","_needs_recoding":"false"},"__id":"59","__uuid":"417A1975-048A-4B17-B585-C736D38D7DD0","__position":"59","__address":"http://data.cityofboston.gov/resource/_4vcu-nshu/59"},{"site":"Tedeschi Food Shops","address":"566 Dorchester Ave","area":"South Boston","state":"MA","zip":"2127","map_location":{"_human_address":"{\"address\":\"566 Dorchester Ave\",\"city\":\"South Boston\",\"state\":\"MA\",\"zip\":\"2127\"}","_latitude":"42.330308040024875","_longitude":"-71.05690589208166","_needs_recoding":"false"},"__id":"240","__uuid":"4382EBD6-557B-4818-AD09-5185CDEDDF54","__position":"240","__address":"http://data.cityofboston.gov/resource/_4vcu-nshu/240"},{"site":"One Stop Convenience","address":"664 Tremont St","area":"Boston","state":"MA","zip":"2118","map_location":{"_human_address":"{\"address\":\"664 Tremont St\",\"city\":\"Boston\",\"state\":\"MA\",\"zip\":\"2118\"}","_latitude":"42.3415945314926","_longitude":"-71.07598950554342","_needs_recoding":"false"},"__id":"87","__uuid":"4390B476-A7A8-4D7B-BBF5-A07820235FF9","__position":"87","__address":"http://data.cityofboston.gov/resource/_4vcu-nshu/87"},{"site":"City Convenience","address":"130 Dartmouth St","area":"Boston","state":"MA","zip":"2116","map_location":{"_human_address":"{\"address\":\"130 Dartmouth St\",\"city\":\"Boston\",\"state\":\"MA\",\"zip\":\"2116\"}","_latitude":"42.3465319379282","_longitude":"-71.07570178208314","_needs_recoding":"false"},"__id":"63","__uuid":"43ADE8CA-0A0F-4BB4-AFC8-286A4D17EE6F","__position":"63","__address":"http://data.cityofboston.gov/resource/_4vcu-nshu/63"},{"site":"Neptune Launderette","address":"944 Bennington St","area":"East Boston","state":"MA","zip":"2128","map_location":{"_human_address":"{\"address\":\"944 Bennington St\",\"city\":\"East Boston\",\"state\":\"MA\",\"zip\":\"2128\"}","_latitude":"42.38624819757985","_longitude":"-71.00823603306657","_needs_recoding":"false"},"__id":"181","__uuid":"445F7BD9-DAA2-4CDB-A973-C5C95B9905CE","__position":"181","__address":"http://data.cityofboston.gov/resource/_4vcu-nshu/181"},{"site":"Two Brothers Market","address":"51 Trenton St","area":"East Boston","state":"MA","zip":"2128","map_location":{"_human_address":"{\"address\":\"51 Trenton St\",\"city\":\"East Boston\",\"state\":\"MA\",\"zip\":\"2128\"}","_latitude":"42.37839269773639","_longitude":"-71.03764021354458","_needs_recoding":"false"},"__id":"186","__uuid":"451612AA-BCC9-44B7-9EB8-C26D87DB9381","__position":"186","__address":"http://data.cityofboston.gov/resource/_4vcu-nshu/186"},{"site":"D & D Convenience Store","address":"734 Blue Hill Ave","area":"Dorchester","state":"MA","zip":"2121","map_location":{"_human_address":"{\"address\":\"734 Blue Hill Ave\",\"city\":\"Dorchester\",\"state\":\"MA\",\"zip\":\"2121\"}","_latitude":"42.299783775920034","_longitude":"-71.08616988748513","_needs_recoding":"false"},"__id":"138","__uuid":"4640DD69-B67A-4A83-856E-7B5D151E0D6E","__position":"138","__address":"http://data.cityofboston.gov/resource/_4vcu-nshu/138"},{"site":"Symphony Market II Nghbrhd","address":"291 Huntington Ave","area":"Boston","state":"MA","zip":"2115","map_location":{"_human_address":"{\"address\":\"291 Huntington Ave\",\"city\":\"Boston\",\"state\":\"MA\",\"zip\":\"2115\"}","_latitude":"42.34151032328361","_longitude":"-71.08663877499849","_needs_recoding":"false"},"__id":"100","__uuid":"49412FD5-FF01-4504-92BA-EDC789223AF4","__position":"100","__address":"http://data.cityofboston.gov/resource/_4vcu-nshu/100"},{"site":"Tedeschi Food Shops","address":"695 Truman Hwy","area":"Hyde Park","state":"MA","zip":"2136","map_location":{"_human_address":"{\"address\":\"695 Truman Hwy\",\"city\":\"Hyde Park\",\"state\":\"MA\",\"zip\":\"2136\"}","_latitude":"42.252246887881654","_longitude":"-71.11879723413807","_needs_recoding":"false"},"__id":"196","__uuid":"49B12653-6D7C-429B-80E5-8879A109E355","__position":"196","__address":"http://data.cityofboston.gov/resource/_4vcu-nshu/196"},{"site":"Adams Market","address":"365 Adams St","area":"Dorchester","state":"MA","zip":"2122","map_location":{"_human_address":"{\"address\":\"365 Adams St\",\"city\":\"Dorchester\",\"state\":\"MA\",\"zip\":\"2122\"}","_latitude":"42.2971140639234","_longitude":"-71.05663609547287","_needs_recoding":"false"},"__id":"130","__uuid":"4B304474-C725-4C61-8B00-9F280EBC8E7A","__position":"130","__address":"http://data.cityofboston.gov/resource/_4vcu-nshu/130"},{"site":"7-Eleven","address":"10 Milk St","area":"Boston","state":"MA","zip":"2108","map_location":{"_human_address":"{\"address\":\"10 Milk St\",\"city\":\"Boston\",\"state\":\"MA\",\"zip\":\"2108\"}","_latitude":"42.35676376546663","_longitude":"-71.05800728414965","_needs_recoding":"false"},"__id":"33","__uuid":"4B724CDD-0FF2-408E-BE67-EFF094DC312C","__position":"33","__address":"http://data.cityofboston.gov/resource/_4vcu-nshu/33"},{"site":"Campus Convenience","address":"700 Albany St","area":"Boston","state":"MA","zip":"2118","map_location":{"_human_address":"{\"address\":\"700 Albany St\",\"city\":\"Boston\",\"state\":\"MA\",\"zip\":\"2118\"}","_latitude":"42.335667999319526","_longitude":"-71.07039572252114","_needs_recoding":"false"},"__id":"57","__uuid":"4D1F392F-B9CD-4E0B-ACDA-8867D03C2BF8","__position":"57","__address":"http://data.cityofboston.gov/resource/_4vcu-nshu/57"},{"site":"Fenway Convenience","address":"76 Kilmarnock St","area":"Boston","state":"MA","zip":"2215","map_location":{"_human_address":"{\"address\":\"76 Kilmarnock St\",\"city\":\"Boston\",\"state\":\"MA\",\"zip\":\"2215\"}","_latitude":"42.34272038533916","_longitude":"-71.09932903049359","_needs_recoding":"false"},"__id":"72","__uuid":"4D520AB0-C9AB-48D5-A665-3B5B6F5198C3","__position":"72","__address":"http://data.cityofboston.gov/resource/_4vcu-nshu/72"},{"site":"7-Eleven","address":"55 Berkeley St","area":"Boston","state":"MA","zip":"2116","map_location":{"_human_address":"{\"address\":\"55 Berkeley St\",\"city\":\"Boston\",\"state\":\"MA\",\"zip\":\"2116\"}","_latitude":"42.346404298406995","_longitude":"-71.07059747308705","_needs_recoding":"false"},"__id":"42","__uuid":"4FA2A0CA-8B6A-4A62-80B8-53B72D37C889","__position":"42","__address":"http://data.cityofboston.gov/resource/_4vcu-nshu/42"},{"site":"Maria's Store","address":"777 Dorchester Ave","area":"Dorchester","state":"MA","zip":"2125","map_location":{"_human_address":"{\"address\":\"777 Dorchester Ave\",\"city\":\"Dorchester\",\"state\":\"MA\",\"zip\":\"2125\"}","_latitude":"42.32394162621778","_longitude":"-71.05691081765069","_needs_recoding":"false"},"__id":"147","__uuid":"5024DAE5-252D-4462-9CB5-0C7D509FC1CE","__position":"147","__address":"http://data.cityofboston.gov/resource/_4vcu-nshu/147"},{"site":"Gateway Newstand","address":"1 Faneuil Hall Market Pl","area":"Boston","state":"MA","zip":"2109","map_location":{"_human_address":"{\"address\":\"1 Faneuil Hall Market Pl\",\"city\":\"Boston\",\"state\":\"MA\",\"zip\":\"2109\"}","_latitude":"42.35993170767","_longitude":"-71.05579073276533","_needs_recoding":"false"},"__id":"75","__uuid":"505AB8EE-CE93-4EB0-98D1-C86DC1B1177F","__position":"75","__address":"http://data.cityofboston.gov/resource/_4vcu-nshu/75"},{"site":"Cumberland Farms","address":"464 Chelsea St","area":"East Boston","state":"MA","zip":"2128","map_location":{"_human_address":"{\"address\":\"464 Chelsea St\",\"city\":\"East Boston\",\"state\":\"MA\",\"zip\":\"2128\"}","_latitude":"42.38184885379028","_longitude":"-71.02498470821692","_needs_recoding":"false"},"__id":"176","__uuid":"5188B709-9ACE-47DB-BA7C-AFF48077636C","__position":"176","__address":"http://data.cityofboston.gov/resource/_4vcu-nshu/176"},{"site":"Central Convenience","address":"218 Blue Hill Ave","area":"Roxbury","state":"MA","zip":"2119","map_location":{"_human_address":"{\"address\":\"218 Blue Hill Ave\",\"city\":\"Roxbury\",\"state\":\"MA\",\"zip\":\"2119\"}","_latitude":"42.31703404687238","_longitude":"-71.07801298010935","_needs_recoding":"false"},"__id":"220","__uuid":"519837DC-39B2-4BDB-9765-3D1F31064B74","__position":"220","__address":"http://data.cityofboston.gov/resource/_4vcu-nshu/220"},{"site":"Campus Convenience","address":"275 Babcock St","area":"Boston","state":"MA","zip":"2215","map_location":{"_human_address":"{\"address\":\"275 Babcock St\",\"city\":\"Boston\",\"state\":\"MA\",\"zip\":\"2215\"}","_latitude":"42.352824652023536","_longitude":"-71.1209473200311","_needs_recoding":"false"},"__id":"58","__uuid":"52723854-1960-40FF-8953-F2E514A632C0","__position":"58","__address":"http://data.cityofboston.gov/resource/_4vcu-nshu/58"},{"site":"Pezzi Service Ctr","address":"571 Washington Ave","area":"Chelsea","state":"MA","zip":"2150","map_location":{"_human_address":"{\"address\":\"571 Washington Ave\",\"city\":\"Chelsea\",\"state\":\"MA\",\"zip\":\"2150\"}","_latitude":"42.409772134533796","_longitude":"-71.03009710238825","_needs_recoding":"false"},"__id":"127","__uuid":"53BCC128-13E1-4756-924C-69D24DC89A1D","__position":"127","__address":"http://data.cityofboston.gov/resource/_4vcu-nshu/127"},{"site":"Jen's Place","address":"10 Park Plz","area":"Boston","state":"MA","zip":"2116","map_location":{"_human_address":"{\"address\":\"10 Park Plz\",\"city\":\"Boston\",\"state\":\"MA\",\"zip\":\"2116\"}","_latitude":"42.35188927272095","_longitude":"-71.06719249594379","_needs_recoding":"false"},"__id":"79","__uuid":"5839DF1E-41F5-43C9-AFEE-C660A3AA1F52","__position":"79","__address":"http://data.cityofboston.gov/resource/_4vcu-nshu/79"},{"site":"7-Eleven","address":"532 Commonwealth Ave","area":"Boston","state":"MA","zip":"2215","map_location":{"_human_address":"{\"address\":\"532 Commonwealth Ave\",\"city\":\"Boston\",\"state\":\"MA\",\"zip\":\"2215\"}","_latitude":"42.34875313484582","_longitude":"-71.09620626476209","_needs_recoding":"false"},"__id":"50","__uuid":"591B2878-2D64-4252-BB27-D60D0AAB09B2","__position":"50","__address":"http://data.cityofboston.gov/resource/_4vcu-nshu/50"},{"site":"Riverwood Gas & Convenience","address":"869 River St","area":"Hyde Park","state":"MA","zip":"2136","map_location":{"_human_address":"{\"address\":\"869 River St\",\"city\":\"Hyde Park\",\"state\":\"MA\",\"zip\":\"2136\"}","_latitude":"42.262310301389505","_longitude":"-71.10883274605345","_needs_recoding":"false"},"__id":"193","__uuid":"59A07AED-2543-4B81-990C-0CC7EC188712","__position":"193","__address":"http://data.cityofboston.gov/resource/_4vcu-nshu/193"},{"site":"No Name Deli & Grocerytwo","address":"1300 Blue Hill Ave","area":"Mattapan","state":"MA","zip":"2126","map_location":{"_human_address":"{\"address\":\"1300 Blue Hill Ave\",\"city\":\"Mattapan\",\"state\":\"MA\",\"zip\":\"2126\"}","_latitude":"42.279379433505596","_longitude":"-71.09293273257543","_needs_recoding":"false"},"__id":"210","__uuid":"59E8097B-346B-448F-9387-3085BDE74680","__position":"210","__address":"http://data.cityofboston.gov/resource/_4vcu-nshu/210"},{"site":"Happy Superette","address":"122 Seaver St","area":"Dorchester","state":"MA","zip":"2121","map_location":{"_human_address":"{\"address\":\"122 Seaver St\",\"city\":\"Dorchester\",\"state\":\"MA\",\"zip\":\"2121\"}","_latitude":"42.3097045723336","_longitude":"-71.09171864783588","_needs_recoding":"false"},"__id":"143","__uuid":"5ADE5160-15F1-43D5-9E39-CFD24FFD4D5A","__position":"143","__address":"http://data.cityofboston.gov/resource/_4vcu-nshu/143"},{"site":"Bunker Hill Market","address":"180 Bunker Hill St","area":"Charlestown","state":"MA","zip":"2129","map_location":{"_human_address":"{\"address\":\"180 Bunker Hill St\",\"city\":\"Charlestown\",\"state\":\"MA\",\"zip\":\"2129\"}","_latitude":"42.378637605879476","_longitude":"-71.06164531917608","_needs_recoding":"false"},"__id":"121","__uuid":"5B172F7F-5E93-4727-8117-DB6547470400","__position":"121","__address":"http://data.cityofboston.gov/resource/_4vcu-nshu/121"},{"site":"Tedeschi Food Shops","address":"779 Centre St","area":"Jamaica Plain","state":"MA","zip":"2130","map_location":{"_human_address":"{\"address\":\"779 Centre St\",\"city\":\"Jamaica Plain\",\"state\":\"MA\",\"zip\":\"2130\"}","_latitude":"42.30979313809442","_longitude":"-71.1154587346798","_needs_recoding":"false"},"__id":"205","__uuid":"5CFBC260-10C7-4482-9491-F1EED8F9BC6F","__position":"205","__address":"http://data.cityofboston.gov/resource/_4vcu-nshu/205"},{"site":"Salcedos Market","address":"302 Norfolk St","area":"Dorchester Ctr","state":"MA","zip":"2124","map_location":{"_human_address":"{\"address\":\"302 Norfolk St\",\"city\":\"Dorchester Ctr\",\"state\":\"MA\",\"zip\":\"2124\"}","_latitude":"42.283489335179524","_longitude":"-71.08308515635457","_needs_recoding":"false"},"__id":"170","__uuid":"5D81390E-15A0-460E-A831-8C6E5C940E2F","__position":"170","__address":"http://data.cityofboston.gov/resource/_4vcu-nshu/170"},{"site":"United National Market","address":"134 Bunker Hill St","area":"Charlestown","state":"MA","zip":"2129","map_location":{"_human_address":"{\"address\":\"134 Bunker Hill St\",\"city\":\"Charlestown\",\"state\":\"MA\",\"zip\":\"2129\"}","_latitude":"42.37795412113718","_longitude":"-71.0597027835928","_needs_recoding":"false"},"__id":"126","__uuid":"5E856F6F-CB09-4DB3-A286-AD3475B51B75","__position":"126","__address":"http://data.cityofboston.gov/resource/_4vcu-nshu/126"},{"site":"Botanica Anaiza's","address":"610 Centre St","area":"Jamaica Plain","state":"MA","zip":"2130","map_location":{"_human_address":"{\"address\":\"610 Centre St\",\"city\":\"Jamaica Plain\",\"state\":\"MA\",\"zip\":\"2130\"}","_latitude":"42.314461985868604","_longitude":"-71.11406680026397","_needs_recoding":"false"},"__id":"197","__uuid":"5EB8BDFD-1FFA-47BE-A59E-2024CA037ED8","__position":"197","__address":"http://data.cityofboston.gov/resource/_4vcu-nshu/197"},{"site":"Dollar Convenience","address":"55 Temple Pl","area":"Boston","state":"MA","zip":"2111","map_location":{"_human_address":"{\"address\":\"55 Temple Pl\",\"city\":\"Boston\",\"state\":\"MA\",\"zip\":\"2111\"}","_latitude":"42.35493147718711","_longitude":"-71.06168129205724","_needs_recoding":"false"},"__id":"67","__uuid":"5EF0437A-10CC-4FCC-8EE2-736E47BFE400","__position":"67","__address":"http://data.cityofboston.gov/resource/_4vcu-nshu/67"},{"site":"Cruz Market","address":"237 Bowdoin Street","area":"Dorchester","state":"MA","zip":"2122","map_location":{"_human_address":"{\"address\":\"237 Bowdoin Street\",\"city\":\"Dorchester\",\"state\":\"MA\",\"zip\":\"2122\"}","_latitude":"42.305972983667644","_longitude":"-71.06723352015074","_needs_recoding":"false"},"__id":"5","__uuid":"60C47C19-4B0A-4BD6-98FD-7B7555299263","__position":"5","__address":"http://data.cityofboston.gov/resource/_4vcu-nshu/5"},{"site":"Country Store","address":"316 Bowdoin St","area":"Dorchester","state":"MA","zip":"2122","map_location":{"_human_address":"{\"address\":\"316 Bowdoin St\",\"city\":\"Dorchester\",\"state\":\"MA\",\"zip\":\"2122\"}","_latitude":"42.307923914715616","_longitude":"-71.06526958695417","_needs_recoding":"false"},"__id":"137","__uuid":"61F1BB61-4256-4D7C-86E2-A63AC43C60E2","__position":"137","__address":"http://data.cityofboston.gov/resource/_4vcu-nshu/137"},{"site":"Store 24","address":"555 E BRd.way","area":"South Boston","state":"MA","zip":"2127","map_location":{"_human_address":"{\"address\":\"555 E BRd.way\",\"city\":\"South Boston\",\"state\":\"MA\",\"zip\":\"2127\"}","_latitude":"42.337950000092576","_longitude":"-71.04948000030163","_needs_recoding":"false"},"__id":"239","__uuid":"64BD4838-40C3-42A1-ADDE-A829FD3D076E","__position":"239","__address":"http://data.cityofboston.gov/resource/_4vcu-nshu/239"},{"site":"J & J Discount Mini Mart","address":"131 W BRd.way","area":"South Boston","state":"MA","zip":"2127","map_location":{"_human_address":"{\"address\":\"131 W BRd.way\",\"city\":\"South Boston\",\"state\":\"MA\",\"zip\":\"2127\"}","_latitude":"42.337950000092576","_longitude":"-71.04948000030163","_needs_recoding":"false"},"__id":"236","__uuid":"6681E18F-90E6-41ED-9F5B-F66672A87E3D","__position":"236","__address":"http://data.cityofboston.gov/resource/_4vcu-nshu/236"},{"site":"Sulgrave News","address":"6 Milk St","area":"Boston","state":"MA","zip":"2108","map_location":{"_human_address":"{\"address\":\"6 Milk St\",\"city\":\"Boston\",\"state\":\"MA\",\"zip\":\"2108\"}","_latitude":"42.3567660941269","_longitude":"-71.05818292936328","_needs_recoding":"false"},"__id":"99","__uuid":"66F3645A-0B28-4B05-8AC3-EADB316CC344","__position":"99","__address":"http://data.cityofboston.gov/resource/_4vcu-nshu/99"},{"site":"7-Eleven","address":"1747 Washington St","area":"Boston","state":"MA","zip":"2118","map_location":{"_human_address":"{\"address\":\"1747 Washington St\",\"city\":\"Boston\",\"state\":\"MA\",\"zip\":\"2118\"}","_latitude":"42.33665725355172","_longitude":"-71.0768888275727","_needs_recoding":"false"},"__id":"45","__uuid":"68C73B51-0C57-4C93-BD06-31EA6879E015","__position":"45","__address":"http://data.cityofboston.gov/resource/_4vcu-nshu/45"},{"site":"Liriano Grocery","address":"1503 River St","area":"Hyde Park","state":"MA","zip":"2136","map_location":{"_human_address":"{\"address\":\"1503 River St\",\"city\":\"Hyde Park\",\"state\":\"MA\",\"zip\":\"2136\"}","_latitude":"42.25042126416213","_longitude":"-71.13092908831334","_needs_recoding":"false"},"__id":"190","__uuid":"690FFFF6-E231-4844-A334-D88C1D4FE998","__position":"190","__address":"http://data.cityofboston.gov/resource/_4vcu-nshu/190"},{"site":"Hillside Spa Cardoza Brothers","address":"26 Hancock St","area":"Dorchester","state":"MA","zip":"2125","map_location":{"_human_address":"{\"address\":\"26 Hancock St\",\"city\":\"Dorchester\",\"state\":\"MA\",\"zip\":\"2125\"}","_latitude":"42.31503755196735","_longitude":"-71.06590810559493","_needs_recoding":"false"},"__id":"144","__uuid":"6983174A-2894-44FC-9BB5-BACE4204D7AE","__position":"144","__address":"http://data.cityofboston.gov/resource/_4vcu-nshu/144"},{"site":"Downtown Convenience","address":"40 Boylston St","area":"Boston","state":"MA","zip":"2116","map_location":{"_human_address":"{\"address\":\"40 Boylston St\",\"city\":\"Boston\",\"state\":\"MA\",\"zip\":\"2116\"}","_latitude":"42.35230545686153","_longitude":"-71.06383966492757","_needs_recoding":"false"},"__id":"68","__uuid":"6B867948-D932-4BB9-9D2A-EF63A4C3A540","__position":"68","__address":"http://data.cityofboston.gov/resource/_4vcu-nshu/68"},{"site":"7-Eleven","address":"204 N Harvard St","area":"Allston","state":"MA","zip":"2134","map_location":{"_human_address":"{\"address\":\"204 N Harvard St\",\"city\":\"Allston\",\"state\":\"MA\",\"zip\":\"2134\"}","_latitude":"42.36287915195058","_longitude":"-71.1299621267734","_needs_recoding":"false"},"__id":"20","__uuid":"6BBC3ADC-4A5A-44F3-9F98-F9AB945554F7","__position":"20","__address":"http://data.cityofboston.gov/resource/_4vcu-nshu/20"},{"site":"E S Variety","address":"3 Gladstone St","area":"Boston","state":"MA","zip":"2128","map_location":{"_human_address":"{\"address\":\"3 Gladstone St\",\"city\":\"Boston\",\"state\":\"MA\",\"zip\":\"2128\"}","_latitude":"42.38913064376083","_longitude":"-70.99968078696207","_needs_recoding":"false"},"__id":"70","__uuid":"6C677FD8-3A81-46C1-8870-CB0E0EFBD379","__position":"70","__address":"http://data.cityofboston.gov/resource/_4vcu-nshu/70"},{"site":"J & G's Market","address":"274 Hyde Park Ave","area":"Jamaica Plain","state":"MA","zip":"2130","map_location":{"_human_address":"{\"address\":\"274 Hyde Park Ave\",\"city\":\"Jamaica Plain\",\"state\":\"MA\",\"zip\":\"2130\"}","_latitude":"42.29201404749895","_longitude":"-71.1177121873278","_needs_recoding":"false"},"__id":"200","__uuid":"6CAC86BB-6B63-4A11-92A7-7E00690C79C6","__position":"200","__address":"http://data.cityofboston.gov/resource/_4vcu-nshu/200"},{"site":"Van Mini Market","address":"109 Franklin St","area":"Allston","state":"MA","zip":"2134","map_location":{"_human_address":"{\"address\":\"109 Franklin St\",\"city\":\"Allston\",\"state\":\"MA\",\"zip\":\"2134\"}","_latitude":"42.359791515776024","_longitude":"-71.13293739164449","_needs_recoding":"false"},"__id":"31","__uuid":"6D50859E-4969-43F0-8543-1833D750B582","__position":"31","__address":"http://data.cityofboston.gov/resource/_4vcu-nshu/31"},{"site":"Quality Mart","address":"21 Massachusetts Ave","area":"Boston","state":"MA","zip":"2115","map_location":{"_human_address":"{\"address\":\"21 Massachusetts Ave\",\"city\":\"Boston\",\"state\":\"MA\",\"zip\":\"2115\"}","_latitude":"42.350827063131234","_longitude":"-71.08957078690993","_needs_recoding":"false"},"__id":"90","__uuid":"6DA9B468-851A-4E83-8971-72555B88073F","__position":"90","__address":"http://data.cityofboston.gov/resource/_4vcu-nshu/90"},{"site":"Super Stop & Shop","address":"460 Blue Hill Ave","area":"Dorchester","state":"MA","zip":"2121","map_location":{"_human_address":"{\"address\":\"460 Blue Hill Ave\",\"city\":\"Dorchester\",\"state\":\"MA\",\"zip\":\"2121\"}","_latitude":"42.309137229079376","_longitude":"-71.08275736736316","_needs_recoding":"false"},"__id":"154","__uuid":"6E84C10A-B8F5-4EC9-976D-FBE92AE00624","__position":"154","__address":"http://data.cityofboston.gov/resource/_4vcu-nshu/154"},{"site":"Store 24","address":"684 Centre St","area":"Jamaica Plain","state":"MA","zip":"2130","map_location":{"_human_address":"{\"address\":\"684 Centre St\",\"city\":\"Jamaica Plain\",\"state\":\"MA\",\"zip\":\"2130\"}","_latitude":"42.3119722838793","_longitude":"-71.11417609921867","_needs_recoding":"false"},"__id":"203","__uuid":"6FAAB0DC-97D9-4934-9F7F-0AC4FC5DD3DE","__position":"203","__address":"http://data.cityofboston.gov/resource/_4vcu-nshu/203"},{"site":"Allston Convenience Store","address":"165 Allston St","area":"Allston","state":"MA","zip":"2134","map_location":{"_human_address":"{\"address\":\"165 Allston St\",\"city\":\"Allston\",\"state\":\"MA\",\"zip\":\"2134\"}","_latitude":"42.347836614649275","_longitude":"-71.13814411252383","_needs_recoding":"false"},"__id":"21","__uuid":"73EE76CE-19DB-41AB-AE72-A667B8BEF866","__position":"21","__address":"http://data.cityofboston.gov/resource/_4vcu-nshu/21"},{"site":"Gonzalez Market","address":"1178 Blue Hill Ave","area":"Mattapan","state":"MA","zip":"2126","map_location":{"_human_address":"{\"address\":\"1178 Blue Hill Ave\",\"city\":\"Mattapan\",\"state\":\"MA\",\"zip\":\"2126\"}","_latitude":"42.28399295551594","_longitude":"-71.0914038851256","_needs_recoding":"false"},"__id":"206","__uuid":"751D3D27-E66E-428C-B2B3-B13F54A6594C","__position":"206","__address":"http://data.cityofboston.gov/resource/_4vcu-nshu/206"},{"site":"Store 24","address":"1187 Hyde Park Ave","area":"Hyde Park","state":"MA","zip":"2136","map_location":{"_human_address":"{\"address\":\"1187 Hyde Park Ave\",\"city\":\"Hyde Park\",\"state\":\"MA\",\"zip\":\"2136\"}","_latitude":"42.2580744946315","_longitude":"-71.12360860699482","_needs_recoding":"false"},"__id":"194","__uuid":"760C1268-DA8C-41C8-A9E4-77AA99BF3D16","__position":"194","__address":"http://data.cityofboston.gov/resource/_4vcu-nshu/194"},{"site":"White Hen Pantry","address":"205 Maverick St","area":"East Boston","state":"MA","zip":"2128","map_location":{"_human_address":"{\"address\":\"205 Maverick St\",\"city\":\"East Boston\",\"state\":\"MA\",\"zip\":\"2128\"}","_latitude":"42.36881502802967","_longitude":"-71.03609047137489","_needs_recoding":"false"},"__id":"189","__uuid":"7748C621-DC8D-4906-9613-8F8A6744F3CA","__position":"189","__address":"http://data.cityofboston.gov/resource/_4vcu-nshu/189"},{"site":"Mini Market","address":"64 Blue Hill Ave","area":"Roxbury","state":"MA","zip":"2119","map_location":{"_human_address":"{\"address\":\"64 Blue Hill Ave\",\"city\":\"Roxbury\",\"state\":\"MA\",\"zip\":\"2119\"}","_latitude":"42.32294259260493","_longitude":"-71.07659205130307","_needs_recoding":"false"},"__id":"226","__uuid":"79FC7457-B4EE-4476-B1C4-0C3E16DB683D","__position":"226","__address":"http://data.cityofboston.gov/resource/_4vcu-nshu/226"},{"site":"O'Connell's Convenience Plus","address":"40 Worcester Sq","area":"Boston","state":"MA","zip":"2118","map_location":{"_human_address":"{\"address\":\"40 Worcester Sq\",\"city\":\"Boston\",\"state\":\"MA\",\"zip\":\"2118\"}","_latitude":"42.33611766033414","_longitude":"-71.07400200385865","_needs_recoding":"false"},"__id":"86","__uuid":"7E892CBF-F482-4D89-8F6B-6365ACD4B193","__position":"86","__address":"http://data.cityofboston.gov/resource/_4vcu-nshu/86"},{"site":"Hyde Park Market","address":"853 River St","area":"Mattapan","state":"MA","zip":"2126","map_location":{"_human_address":"{\"address\":\"853 River St\",\"city\":\"Mattapan\",\"state\":\"MA\",\"zip\":\"2126\"}","_latitude":"42.262720469966574","_longitude":"-71.1083559069662","_needs_recoding":"false"},"__id":"207","__uuid":"7F93ACE4-14C6-4AA7-B0DD-21277E129FD3","__position":"207","__address":"http://data.cityofboston.gov/resource/_4vcu-nshu/207"},{"site":"Food Basket","address":"563 Columbus Ave # 1","area":"Boston","state":"MA","zip":"2118","map_location":{"_human_address":"{\"address\":\"563 Columbus Ave # 1\",\"city\":\"Boston\",\"state\":\"MA\",\"zip\":\"2118\"}","_latitude":"42.340991985732956","_longitude":"-71.08131349195685","_needs_recoding":"false"},"__id":"74","__uuid":"7FCA9257-EB27-4235-8EE9-0142E28AC45C","__position":"74","__address":"http://data.cityofboston.gov/resource/_4vcu-nshu/74"},{"site":"7-Eleven","address":"200 Seaport Blvd # 3","area":"Boston","state":"MA","zip":"2210","map_location":{"_human_address":"{\"address\":\"200 Seaport Blvd # 3\",\"city\":\"Boston\",\"state\":\"MA\",\"zip\":\"2210\"}","_latitude":"42.350058771020294","_longitude":"-71.04165461474597","_needs_recoding":"false"},"__id":"47","__uuid":"816A1E2F-E37E-4A96-9229-0623267F2BA3","__position":"47","__address":"http://data.cityofboston.gov/resource/_4vcu-nshu/47"},{"site":"Mutual Oil Co Inc","address":"529 Geneva Ave","area":"Dorchester","state":"MA","zip":"2122","map_location":{"_human_address":"{\"address\":\"529 Geneva Ave\",\"city\":\"Dorchester\",\"state\":\"MA\",\"zip\":\"2122\"}","_latitude":"42.29833714188328","_longitude":"-71.06295832933887","_needs_recoding":"false"},"__id":"148","__uuid":"82A6DAEC-E58F-4CE1-9DC6-3787A424FE46","__position":"148","__address":"http://data.cityofboston.gov/resource/_4vcu-nshu/148"},{"site":"Lili's Market","address":"1286 Blue Hill Ave","area":"Mattapan","state":"MA","zip":"2126","map_location":{"_human_address":"{\"address\":\"1286 Blue Hill Ave\",\"city\":\"Mattapan\",\"state\":\"MA\",\"zip\":\"2126\"}","_latitude":"42.279971216786656","_longitude":"-71.09270747186721","_needs_recoding":"false"},"__id":"209","__uuid":"82F6DBB8-48FB-4007-A8F3-8C6561910A74","__position":"209","__address":"http://data.cityofboston.gov/resource/_4vcu-nshu/209"},{"site":"Step N Out Mart","address":"609 Walk Hill St","area":"Mattapan","state":"MA","zip":"2126","map_location":{"_human_address":"{\"address\":\"609 Walk Hill St\",\"city\":\"Mattapan\",\"state\":\"MA\",\"zip\":\"2126\"}","_latitude":"42.28107015892067","_longitude":"-71.09781605119451","_needs_recoding":"false"},"__id":"211","__uuid":"84AC482E-A3A1-44C2-9444-F982D46C6CDD","__position":"211","__address":"http://data.cityofboston.gov/resource/_4vcu-nshu/211"},{"site":"Dello Di Inc","address":"372 Commercial St","area":"Boston","state":"MA","zip":"2109","map_location":{"_human_address":"{\"address\":\"372 Commercial St\",\"city\":\"Boston\",\"state\":\"MA\",\"zip\":\"2109\"}","_latitude":"42.36616400933309","_longitude":"-71.0513211022797","_needs_recoding":"false"},"__id":"66","__uuid":"84F70845-6986-4B96-B095-035F909D27A4","__position":"66","__address":"http://data.cityofboston.gov/resource/_4vcu-nshu/66"},{"site":"Green Elm","address":"536 Centre St","area":"Jamaica Plain","state":"MA","zip":"2130","map_location":{"_human_address":"{\"address\":\"536 Centre St\",\"city\":\"Jamaica Plain\",\"state\":\"MA\",\"zip\":\"2130\"}","_latitude":"42.316935121449205","_longitude":"-71.11341029518258","_needs_recoding":"false"},"__id":"199","__uuid":"85951C9A-2F64-44F9-B15E-C2AB8E3AC928","__position":"199","__address":"http://data.cityofboston.gov/resource/_4vcu-nshu/199"},{"site":"Bostonian Convenience Store","address":"1464 Dorchester Ave","area":"Dorchester","state":"MA","zip":"2122","map_location":{"_human_address":"{\"address\":\"1464 Dorchester Ave\",\"city\":\"Dorchester\",\"state\":\"MA\",\"zip\":\"2122\"}","_latitude":"42.300727726675014","_longitude":"-71.0599387438387","_needs_recoding":"false"},"__id":"131","__uuid":"86DF2A67-9324-4FF5-BD9D-DCFDF31CEA21","__position":"131","__address":"http://data.cityofboston.gov/resource/_4vcu-nshu/131"},{"site":"New Store On the Block","address":"847 Dorchester Ave","area":"Dorchester","state":"MA","zip":"2125","map_location":{"_human_address":"{\"address\":\"847 Dorchester Ave\",\"city\":\"Dorchester\",\"state\":\"MA\",\"zip\":\"2125\"}","_latitude":"42.3218004536277","_longitude":"-71.05684293953959","_needs_recoding":"false"},"__id":"149","__uuid":"88059A6B-5727-476C-AC8C-7D3DFECBDE9D","__position":"149","__address":"http://data.cityofboston.gov/resource/_4vcu-nshu/149"},{"site":"White Hen Pantry","address":"120 Byron St","area":"East Boston","state":"MA","zip":"2128","map_location":{"_human_address":"{\"address\":\"120 Byron St\",\"city\":\"East Boston\",\"state\":\"MA\",\"zip\":\"2128\"}","_latitude":"42.38382705192493","_longitude":"-71.01644849764489","_needs_recoding":"false"},"__id":"188","__uuid":"8A6AD75A-8EBE-4CF6-8071-40B0A67D0C5F","__position":"188","__address":"http://data.cityofboston.gov/resource/_4vcu-nshu/188"},{"site":"Chamas Market","address":"198 Humboldt Ave","area":"Dorchester","state":"MA","zip":"2121","map_location":{"_human_address":"{\"address\":\"198 Humboldt Ave\",\"city\":\"Dorchester\",\"state\":\"MA\",\"zip\":\"2121\"}","_latitude":"42.31284493935739","_longitude":"-71.08965126825034","_needs_recoding":"false"},"__id":"134","__uuid":"8EBF498D-3ADC-4740-9BDA-C79C8C4FCF19","__position":"134","__address":"http://data.cityofboston.gov/resource/_4vcu-nshu/134"},{"site":"Rosedale Grocery","address":"547 Washington St","area":"Dorchester Ctr","state":"MA","zip":"2124","map_location":{"_human_address":"{\"address\":\"547 Washington St\",\"city\":\"Dorchester Ctr\",\"state\":\"MA\",\"zip\":\"2124\"}","_latitude":"42.29254550801454","_longitude":"-71.07182564454774","_needs_recoding":"false"},"__id":"169","__uuid":"8FE4F191-0E2D-4004-8B5C-6535A8DB5C4D","__position":"169","__address":"http://data.cityofboston.gov/resource/_4vcu-nshu/169"},{"site":"Golden Goose","address":"179 Commercial St","area":"Boston","state":"MA","zip":"2109","map_location":{"_human_address":"{\"address\":\"179 Commercial St\",\"city\":\"Boston\",\"state\":\"MA\",\"zip\":\"2109\"}","_latitude":"42.36297062078698","_longitude":"-71.05170270872829","_needs_recoding":"false"},"__id":"76","__uuid":"90ADD181-ADAD-4515-B04B-F952B49ACD84","__position":"76","__address":"http://data.cityofboston.gov/resource/_4vcu-nshu/76"},{"site":"Store 24","address":"717 Boylston St","area":"Boston","state":"MA","zip":"2116","map_location":{"_human_address":"{\"address\":\"717 Boylston St\",\"city\":\"Boston\",\"state\":\"MA\",\"zip\":\"2116\"}","_latitude":"42.349382660266315","_longitude":"-71.07997350213321","_needs_recoding":"false"},"__id":"97","__uuid":"912C4563-C6EF-4B27-986E-35829E76E673","__position":"97","__address":"http://data.cityofboston.gov/resource/_4vcu-nshu/97"},{"site":"Newtowne Foodmart","address":"87 Medford St","area":"Charlestown","state":"MA","zip":"2129","map_location":{"_human_address":"{\"address\":\"87 Medford St\",\"city\":\"Charlestown\",\"state\":\"MA\",\"zip\":\"2129\"}","_latitude":"42.37918401385763","_longitude":"-71.05596744548801","_needs_recoding":"false"},"__id":"122","__uuid":"92146F8C-0CEF-404F-B493-D76A5FE4F9DD","__position":"122","__address":"http://data.cityofboston.gov/resource/_4vcu-nshu/122"},{"site":"La Poula Conveniences","address":"1330 Blue Hill Ave","area":"Mattapan","state":"MA","zip":"2126","map_location":{"_human_address":"{\"address\":\"1330 Blue Hill Ave\",\"city\":\"Mattapan\",\"state\":\"MA\",\"zip\":\"2126\"}","_latitude":"42.27811034825854","_longitude":"-71.09326436146752","_needs_recoding":"false"},"__id":"208","__uuid":"92E35753-283E-4124-AFCD-AD1CB5E61F05","__position":"208","__address":"http://data.cityofboston.gov/resource/_4vcu-nshu/208"},{"site":"Brighton Super Market","address":"572 Washington St","area":"Brighton","state":"MA","zip":"2135","map_location":{"_human_address":"{\"address\":\"572 Washington St\",\"city\":\"Brighton\",\"state\":\"MA\",\"zip\":\"2135\"}","_latitude":"42.35012010433036","_longitude":"-71.165049366105","_needs_recoding":"false"},"__id":"110","__uuid":"934FA752-2DBA-4B3A-826F-03E786FFDF4D","__position":"110","__address":"http://data.cityofboston.gov/resource/_4vcu-nshu/110"},{"site":"S K B's","address":"156 Washington St","area":"Dorchester","state":"MA","zip":"2121","map_location":{"_human_address":"{\"address\":\"156 Washington St\",\"city\":\"Dorchester\",\"state\":\"MA\",\"zip\":\"2121\"}","_latitude":"42.304047836769314","_longitude":"-71.07899324112128","_needs_recoding":"false"},"__id":"151","__uuid":"93E90648-CE98-429C-8355-41818D897E43","__position":"151","__address":"http://data.cityofboston.gov/resource/_4vcu-nshu/151"},{"site":"Stop N Save","address":"310 Blue Hill Ave","area":"Dorchester","state":"MA","zip":"2121","map_location":{"_human_address":"{\"address\":\"310 Blue Hill Ave\",\"city\":\"Dorchester\",\"state\":\"MA\",\"zip\":\"2121\"}","_latitude":"42.314012324853934","_longitude":"-71.07916411230684","_needs_recoding":"false"},"__id":"152","__uuid":"9419717D-02EF-4B5C-9BCB-4CB690F21186","__position":"152","__address":"http://data.cityofboston.gov/resource/_4vcu-nshu/152"},{"site":"Worlds Best Food Market","address":"645 River St","area":"Mattapan","state":"MA","zip":"2126","map_location":{"_human_address":"{\"address\":\"645 River St\",\"city\":\"Mattapan\",\"state\":\"MA\",\"zip\":\"2126\"}","_latitude":"42.264945314935346","_longitude":"-71.09953375627049","_needs_recoding":"false"},"__id":"16","__uuid":"94F6B591-0E32-45B8-A4CE-EFE34F640907","__position":"16","__address":"http://data.cityofboston.gov/resource/_4vcu-nshu/16"},{"site":"7-Eleven","address":"8 Park Plz","area":"Boston","state":"MA","zip":"2116","map_location":{"_human_address":"{\"address\":\"8 Park Plz\",\"city\":\"Boston\",\"state\":\"MA\",\"zip\":\"2116\"}","_latitude":"42.35203932460155","_longitude":"-71.06724744451978","_needs_recoding":"false"},"__id":"43","__uuid":"95B098E0-2BA7-4AAD-A80E-0FC1F47F62C6","__position":"43","__address":"http://data.cityofboston.gov/resource/_4vcu-nshu/43"},{"site":"Sumner Market Inc","address":"345 Sumner St","area":"East Boston","state":"MA","zip":"2128","map_location":{"_human_address":"{\"address\":\"345 Sumner St\",\"city\":\"East Boston\",\"state\":\"MA\",\"zip\":\"2128\"}","_latitude":"42.366910446617396","_longitude":"-71.03543907524227","_needs_recoding":"false"},"__id":"183","__uuid":"96C8209E-F67C-444A-81EB-203669C1F4BB","__position":"183","__address":"http://data.cityofboston.gov/resource/_4vcu-nshu/183"},{"site":"Mass Food Market","address":"603 Massachusetts Ave","area":"Boston","state":"MA","zip":"2118","map_location":{"_human_address":"{\"address\":\"603 Massachusetts Ave\",\"city\":\"Boston\",\"state\":\"MA\",\"zip\":\"2118\"}","_latitude":"42.337223826430204","_longitude":"-71.07801298010935","_needs_recoding":"false"},"__id":"82","__uuid":"9785AED5-E641-41A2-9025-F9AF4FD1CC8E","__position":"82","__address":"http://data.cityofboston.gov/resource/_4vcu-nshu/82"},{"site":"Shop MFI Market","address":"170 Salem St","area":"Boston","state":"MA","zip":"2113","map_location":{"_human_address":"{\"address\":\"170 Salem St\",\"city\":\"Boston\",\"state\":\"MA\",\"zip\":\"2113\"}","_latitude":"42.366190988993935","_longitude":"-71.05490040395631","_needs_recoding":"false"},"__id":"92","__uuid":"9A314D16-67F4-4C19-84EF-D91388B5A182","__position":"92","__address":"http://data.cityofboston.gov/resource/_4vcu-nshu/92"},{"site":"La Favorita Market","address":"66 Harvard Ave","area":"Allston","state":"MA","zip":"2134","map_location":{"_human_address":"{\"address\":\"66 Harvard Ave\",\"city\":\"Allston\",\"state\":\"MA\",\"zip\":\"2134\"}","_latitude":"42.353933229734594","_longitude":"-71.13227807135729","_needs_recoding":"false"},"__id":"23","__uuid":"9C3A68C2-3F99-40EC-AB44-B0105C2FDA5F","__position":"23","__address":"http://data.cityofboston.gov/resource/_4vcu-nshu/23"},{"site":"Tedeschi Food Shops","address":"1420 Dorchester Ave","area":"Dorchester","state":"MA","zip":"2122","map_location":{"_human_address":"{\"address\":\"1420 Dorchester Ave\",\"city\":\"Dorchester\",\"state\":\"MA\",\"zip\":\"2122\"}","_latitude":"42.30244535577849","_longitude":"-71.05951859295128","_needs_recoding":"false"},"__id":"155","__uuid":"9E07EA11-8788-44FE-8AC5-EF33012AEC32","__position":"155","__address":"http://data.cityofboston.gov/resource/_4vcu-nshu/155"},{"site":"Cummins Fruits & Vegetables","address":"290 Cummins Hwy","area":"Roslindale","state":"MA","zip":"2131","map_location":{"_human_address":"{\"address\":\"290 Cummins Hwy\",\"city\":\"Roslindale\",\"state\":\"MA\",\"zip\":\"2131\"}","_latitude":"42.279568291131795","_longitude":"-71.11791589854937","_needs_recoding":"false"},"__id":"213","__uuid":"9E123C0E-ACA7-4A0C-88E0-13DBFAF0DD19","__position":"213","__address":"http://data.cityofboston.gov/resource/_4vcu-nshu/213"},{"site":"City Convenience","address":"23 Beacon St","area":"Boston","state":"MA","zip":"2108","map_location":{"_human_address":"{\"address\":\"23 Beacon St\",\"city\":\"Boston\",\"state\":\"MA\",\"zip\":\"2108\"}","_latitude":"42.35807011106937","_longitude":"-71.0623467903589","_needs_recoding":"false"},"__id":"62","__uuid":"A03A41BB-2E2B-44F3-8BB3-53DFEFCFEFFF","__position":"62","__address":"http://data.cityofboston.gov/resource/_4vcu-nshu/62"},{"site":"Convenience Corner","address":"1688 Dorchester Ave","area":"Dorchester","state":"MA","zip":"2122","map_location":{"_human_address":"{\"address\":\"1688 Dorchester Ave\",\"city\":\"Dorchester\",\"state\":\"MA\",\"zip\":\"2122\"}","_latitude":"42.29255775535865","_longitude":"-71.06233524472087","_needs_recoding":"false"},"__id":"136","__uuid":"A09B0E9D-32EE-40F7-BFDE-011BE82D2DD3","__position":"136","__address":"http://data.cityofboston.gov/resource/_4vcu-nshu/136"},{"site":"Brothers Mini Market","address":"802 Tremont St","area":"Boston","state":"MA","zip":"2118","map_location":{"_human_address":"{\"address\":\"802 Tremont St\",\"city\":\"Boston\",\"state\":\"MA\",\"zip\":\"2118\"}","_latitude":"42.33867173489739","_longitude":"-71.08146637670183","_needs_recoding":"false"},"__id":"56","__uuid":"A0A32668-F888-4EC7-9E00-721CC64D7C43","__position":"56","__address":"http://data.cityofboston.gov/resource/_4vcu-nshu/56"},{"site":"Viet Huong Market","address":"1826 Dorchester Ave","area":"Dorchester Ctr","state":"MA","zip":"2124","map_location":{"_human_address":"{\"address\":\"1826 Dorchester Ave\",\"city\":\"Dorchester Ctr\",\"state\":\"MA\",\"zip\":\"2124\"}","_latitude":"42.28851654532332","_longitude":"-71.06348892933613","_needs_recoding":"false"},"__id":"175","__uuid":"A142DF2A-0296-44D4-B07E-C20FC02030CE","__position":"175","__address":"http://data.cityofboston.gov/resource/_4vcu-nshu/175"},{"site":"Million Market","address":"99 Chelsea St","area":"East Boston","state":"MA","zip":"2128","map_location":{"_human_address":"{\"address\":\"99 Chelsea St\",\"city\":\"East Boston\",\"state\":\"MA\",\"zip\":\"2128\"}","_latitude":"42.372405304216386","_longitude":"-71.03582578371487","_needs_recoding":"false"},"__id":"7","__uuid":"A2C1589B-8BC2-4FC3-8574-CA7392D1EFFA","__position":"7","__address":"http://data.cityofboston.gov/resource/_4vcu-nshu/7"},{"site":"Store 24","address":"14 Maverick Sq","area":"East Boston","state":"MA","zip":"2128","map_location":{"_human_address":"{\"address\":\"14 Maverick Sq\",\"city\":\"East Boston\",\"state\":\"MA\",\"zip\":\"2128\"}","_latitude":"42.369396327769316","_longitude":"-71.03962464580405","_needs_recoding":"false"},"__id":"182","__uuid":"A30F3158-13DF-458E-983D-D7BFFC5F8B6A","__position":"182","__address":"http://data.cityofboston.gov/resource/_4vcu-nshu/182"},{"site":"Three D's","address":"249 E St","area":"South Boston","state":"MA","zip":"2127","map_location":{"_human_address":"{\"address\":\"249 E St\",\"city\":\"South Boston\",\"state\":\"MA\",\"zip\":\"2127\"}","_latitude":"42.33586585016593","_longitude":"-71.05159089888849","_needs_recoding":"false"},"__id":"241","__uuid":"A37DC7F6-6253-4E18-B442-FE04DBD51CBC","__position":"241","__address":"http://data.cityofboston.gov/resource/_4vcu-nshu/241"},{"site":"Maddie's Market","address":"2195 Commonwealth Ave","area":"Brighton","state":"MA","zip":"2135","map_location":{"_human_address":"{\"address\":\"2195 Commonwealth Ave\",\"city\":\"Brighton\",\"state\":\"MA\",\"zip\":\"2135\"}","_latitude":"42.340128805115185","_longitude":"-71.16624497449827","_needs_recoding":"false"},"__id":"116","__uuid":"A4B4F8E0-30A8-474E-97B6-2D782D108A24","__position":"116","__address":"http://data.cityofboston.gov/resource/_4vcu-nshu/116"},{"site":"Nora's Convenient Store","address":"303 Newbury St","area":"Boston","state":"MA","zip":"2115","map_location":{"_human_address":"{\"address\":\"303 Newbury St\",\"city\":\"Boston\",\"state\":\"MA\",\"zip\":\"2115\"}","_latitude":"42.34882508060815","_longitude":"-71.0854683597322","_needs_recoding":"false"},"__id":"85","__uuid":"A53150F4-2AB3-4308-9A2C-09AA1F655CD6","__position":"85","__address":"http://data.cityofboston.gov/resource/_4vcu-nshu/85"},{"site":"Tropical Grocery Store","address":"67 Hancock St","area":"Dorchester","state":"MA","zip":"2125","map_location":{"_human_address":"{\"address\":\"67 Hancock St\",\"city\":\"Dorchester\",\"state\":\"MA\",\"zip\":\"2125\"}","_latitude":"42.31337380621318","_longitude":"-71.06515267509036","_needs_recoding":"false"},"__id":"158","__uuid":"A5E15D7C-5AF9-4634-9405-E459ECF128AF","__position":"158","__address":"http://data.cityofboston.gov/resource/_4vcu-nshu/158"},{"site":"Kiki's Kwik-Mart","address":"236 Faneuil St","area":"Brighton","state":"MA","zip":"2135","map_location":{"_human_address":"{\"address\":\"236 Faneuil St\",\"city\":\"Brighton\",\"state\":\"MA\",\"zip\":\"2135\"}","_latitude":"42.35284887782766","_longitude":"-71.15975674942047","_needs_recoding":"false"},"__id":"114","__uuid":"A6038B3D-6D16-47A6-9F7A-28E7B7BF6AE6","__position":"114","__address":"http://data.cityofboston.gov/resource/_4vcu-nshu/114"},{"site":"Mama Supermarket","address":"1178 Blue Hill Ave","area":"Mattapan","state":"MA","zip":"2126","map_location":{"_human_address":"{\"address\":\"1178 Blue Hill Ave\",\"city\":\"Mattapan\",\"state\":\"MA\",\"zip\":\"2126\"}","_latitude":"42.28399295551594","_longitude":"-71.0914038851256","_needs_recoding":"false"},"__id":"14","__uuid":"AA4282C7-1BE9-41AE-90C0-D21584DC14E1","__position":"14","__address":"http://data.cityofboston.gov/resource/_4vcu-nshu/14"},{"site":"White Hen Pantry","address":"250 Cambridge St # 3","area":"Boston","state":"MA","zip":"2114","map_location":{"_human_address":"{\"address\":\"250 Cambridge St # 3\",\"city\":\"Boston\",\"state\":\"MA\",\"zip\":\"2114\"}","_latitude":"42.361109819528394","_longitude":"-71.06748191914625","_needs_recoding":"false"},"__id":"106","__uuid":"AB1BABB8-2F54-4994-A5DB-54EF2D1E4628","__position":"106","__address":"http://data.cityofboston.gov/resource/_4vcu-nshu/106"},{"site":"Medina's Market Inc","address":"611 Tremont St","area":"Boston","state":"MA","zip":"2118","map_location":{"_human_address":"{\"address\":\"611 Tremont St\",\"city\":\"Boston\",\"state\":\"MA\",\"zip\":\"2118\"}","_latitude":"42.34272767724951","_longitude":"-71.07399301063839","_needs_recoding":"false"},"__id":"83","__uuid":"AB8516DB-6E7F-49E1-B3F6-D258665F7262","__position":"83","__address":"http://data.cityofboston.gov/resource/_4vcu-nshu/83"},{"site":"Lanzilli's Grocery","address":"931 Bennington St","area":"Boston","state":"MA","zip":"2128","map_location":{"_human_address":"{\"address\":\"931 Bennington St\",\"city\":\"Boston\",\"state\":\"MA\",\"zip\":\"2128\"}","_latitude":"42.38582318889354","_longitude":"-71.00923283130845","_needs_recoding":"false"},"__id":"81","__uuid":"AC9C4A6D-3243-4DB1-8105-4A65170387CF","__position":"81","__address":"http://data.cityofboston.gov/resource/_4vcu-nshu/81"},{"site":"Store 24","address":"141 Massachusetts Ave","area":"Boston","state":"MA","zip":"2115","map_location":{"_human_address":"{\"address\":\"141 Massachusetts Ave\",\"city\":\"Boston\",\"state\":\"MA\",\"zip\":\"2115\"}","_latitude":"42.346936504346615","_longitude":"-71.08757277328078","_needs_recoding":"false"},"__id":"96","__uuid":"ACA88019-ABCB-4EC1-AB44-BD730A37A401","__position":"96","__address":"http://data.cityofboston.gov/resource/_4vcu-nshu/96"},{"site":"Budget Mart","address":"229 Florence St","area":"Roslindale","state":"MA","zip":"2131","map_location":{"_human_address":"{\"address\":\"229 Florence St\",\"city\":\"Roslindale\",\"state\":\"MA\",\"zip\":\"2131\"}","_latitude":"42.28562072838895","_longitude":"-71.12015521040234","_needs_recoding":"false"},"__id":"212","__uuid":"AE26CAB5-34E3-4EE4-8D12-46DE4552393E","__position":"212","__address":"http://data.cityofboston.gov/resource/_4vcu-nshu/212"},{"site":"Boston Mart","address":"42 Court St","area":"Boston","state":"MA","zip":"2108","map_location":{"_human_address":"{\"address\":\"42 Court St\",\"city\":\"Boston\",\"state\":\"MA\",\"zip\":\"2108\"}","_latitude":"42.35900400362382","_longitude":"-71.0590582114012","_needs_recoding":"false"},"__id":"54","__uuid":"AE4C2F7E-7C12-4AD8-A195-423DC62CBD8B","__position":"54","__address":"http://data.cityofboston.gov/resource/_4vcu-nshu/54"},{"site":"Todisco's Mobil","address":"470 Meridian St","area":"East Boston","state":"MA","zip":"2128","map_location":{"_human_address":"{\"address\":\"470 Meridian St\",\"city\":\"East Boston\",\"state\":\"MA\",\"zip\":\"2128\"}","_latitude":"42.382718041084324","_longitude":"-71.03938370816641","_needs_recoding":"false"},"__id":"185","__uuid":"AEC29E3E-0788-4EB3-BD02-77471E71F96C","__position":"185","__address":"http://data.cityofboston.gov/resource/_4vcu-nshu/185"},{"site":"College Convenience","address":"281 Huntington Ave","area":"Boston","state":"MA","zip":"2115","map_location":{"_human_address":"{\"address\":\"281 Huntington Ave\",\"city\":\"Boston\",\"state\":\"MA\",\"zip\":\"2115\"}","_latitude":"42.3417024501361","_longitude":"-71.0863766749818","_needs_recoding":"false"},"__id":"64","__uuid":"B3A1E365-4B2E-4959-9C15-BFBADBF0C0B3","__position":"64","__address":"http://data.cityofboston.gov/resource/_4vcu-nshu/64"},{"site":"White Hen Pantry","address":"342 Hanover St","area":"Boston","state":"MA","zip":"2113","map_location":{"_human_address":"{\"address\":\"342 Hanover St\",\"city\":\"Boston\",\"state\":\"MA\",\"zip\":\"2113\"}","_latitude":"42.36486898561088","_longitude":"-71.05343450904854","_needs_recoding":"false"},"__id":"105","__uuid":"B3CD8B2A-48C7-407C-AAD6-5CCD281013D0","__position":"105","__address":"http://data.cityofboston.gov/resource/_4vcu-nshu/105"},{"site":"Mattapan Square Mobile","address":"1556 Blue Hill Ave","area":"Mattapan","state":"MA","zip":"2126","map_location":{"_human_address":"{\"address\":\"1556 Blue Hill Ave\",\"city\":\"Mattapan\",\"state\":\"MA\",\"zip\":\"2126\"}","_latitude":"42.27026030812851","_longitude":"-71.09355326477566","_needs_recoding":"false"},"__id":"17","__uuid":"B44156A0-A2E5-4913-8DA7-E09FF8BC48FF","__position":"17","__address":"http://data.cityofboston.gov/resource/_4vcu-nshu/17"},{"site":"Express Depot","address":"145 Dartmouth St # 1","area":"Boston","state":"MA","zip":"2116","map_location":{"_human_address":"{\"address\":\"145 Dartmouth St # 1\",\"city\":\"Boston\",\"state\":\"MA\",\"zip\":\"2116\"}","_latitude":"42.34730522637864","_longitude":"-71.07596252588252","_needs_recoding":"false"},"__id":"71","__uuid":"B4F808AA-74A3-4F18-9733-E9FFC18F3399","__position":"71","__address":"http://data.cityofboston.gov/resource/_4vcu-nshu/71"},{"site":"La Plazita","address":"3 Blue Hill Ave","area":"Roxbury","state":"MA","zip":"2119","map_location":{"_human_address":"{\"address\":\"3 Blue Hill Ave\",\"city\":\"Roxbury\",\"state\":\"MA\",\"zip\":\"2119\"}","_latitude":"42.32523288394556","_longitude":"-71.07512159010693","_needs_recoding":"false"},"__id":"224","__uuid":"B69E778D-E36D-4EBB-8400-82B9B678373A","__position":"224","__address":"http://data.cityofboston.gov/resource/_4vcu-nshu/224"},{"site":"7-Eleven","address":"261 Dartmouth St","area":"Boston","state":"MA","zip":"2116","map_location":{"_human_address":"{\"address\":\"261 Dartmouth St\",\"city\":\"Boston\",\"state\":\"MA\",\"zip\":\"2116\"}","_latitude":"42.35037907261797","_longitude":"-71.07743885250946","_needs_recoding":"false"},"__id":"41","__uuid":"B8DD3792-C288-48F3-AD66-08249A504CA9","__position":"41","__address":"http://data.cityofboston.gov/resource/_4vcu-nshu/41"},{"site":"Chi Chi Produce Market","address":"2251 Washington St","area":"Roxbury","state":"MA","zip":"2119","map_location":{"_human_address":"{\"address\":\"2251 Washington St\",\"city\":\"Roxbury\",\"state\":\"MA\",\"zip\":\"2119\"}","_latitude":"42.33069559042983","_longitude":"-71.0832564186872","_needs_recoding":"false"},"__id":"221","__uuid":"B8F79E9E-55E0-43D8-809A-34C37F6ACCC7","__position":"221","__address":"http://data.cityofboston.gov/resource/_4vcu-nshu/221"},{"site":"Boston Variety","address":"59 Causeway St","area":"Boston","state":"MA","zip":"2114","map_location":{"_human_address":"{\"address\":\"59 Causeway St\",\"city\":\"Boston\",\"state\":\"MA\",\"zip\":\"2114\"}","_latitude":"42.364437311036795","_longitude":"-71.06299430222003","_needs_recoding":"false"},"__id":"55","__uuid":"B9B1C449-DC2D-4213-9783-204D9E30803F","__position":"55","__address":"http://data.cityofboston.gov/resource/_4vcu-nshu/55"},{"site":"Tio Supermarket","address":"9 Meridian St","area":"East Boston","state":"MA","zip":"2128","map_location":{"_human_address":"{\"address\":\"9 Meridian St\",\"city\":\"East Boston\",\"state\":\"MA\",\"zip\":\"2128\"}","_latitude":"42.370489748294005","_longitude":"-71.03891045827538","_needs_recoding":"false"},"__id":"6","__uuid":"B9FEC3F2-62AB-450E-9741-C6E28481A5B7","__position":"6","__address":"http://data.cityofboston.gov/resource/_4vcu-nshu/6"},{"site":"7-Eleven","address":"464 Hanover St # 17","area":"Boston","state":"MA","zip":"2113","map_location":{"_human_address":"{\"address\":\"464 Hanover St # 17\",\"city\":\"Boston\",\"state\":\"MA\",\"zip\":\"2113\"}","_latitude":"42.366982392379725","_longitude":"-71.05259813956133","_needs_recoding":"false"},"__id":"37","__uuid":"BC0F37F6-8EC2-479F-A964-CC714D77CB54","__position":"37","__address":"http://data.cityofboston.gov/resource/_4vcu-nshu/37"},{"site":"Braulios Market","address":"237 Bowdoin St","area":"Dorchester","state":"MA","zip":"2122","map_location":{"_human_address":"{\"address\":\"237 Bowdoin St\",\"city\":\"Dorchester\",\"state\":\"MA\",\"zip\":\"2122\"}","_latitude":"42.305972983667644","_longitude":"-71.06723352015074","_needs_recoding":"false"},"__id":"132","__uuid":"BC3811C5-402F-483A-98FF-E1879CA41862","__position":"132","__address":"http://data.cityofboston.gov/resource/_4vcu-nshu/132"},{"site":"Store 24","address":"187 E Cottage St","area":"Dorchester","state":"MA","zip":"2125","map_location":{"_human_address":"{\"address\":\"187 E Cottage St\",\"city\":\"Dorchester\",\"state\":\"MA\",\"zip\":\"2125\"}","_latitude":"42.32001979600966","_longitude":"-71.06106975307733","_needs_recoding":"false"},"__id":"153","__uuid":"BCD61257-5723-42AC-AA9A-BC5CFAA4FCB9","__position":"153","__address":"http://data.cityofboston.gov/resource/_4vcu-nshu/153"},{"site":"7-Eleven","address":"91 Causeway St","area":"Boston","state":"MA","zip":"2114","map_location":{"_human_address":"{\"address\":\"91 Causeway St\",\"city\":\"Boston\",\"state\":\"MA\",\"zip\":\"2114\"}","_latitude":"42.364849317579676","_longitude":"-71.06226540590795","_needs_recoding":"false"},"__id":"38","__uuid":"BDBE8329-465A-468C-BE2A-D6A0EA7BC8D0","__position":"38","__address":"http://data.cityofboston.gov/resource/_4vcu-nshu/38"},{"site":"Our Neighborhood Variety Store","address":"185 Howard Ave","area":"Dorchester","state":"MA","zip":"2125","map_location":{"_human_address":"{\"address\":\"185 Howard Ave\",\"city\":\"Dorchester\",\"state\":\"MA\",\"zip\":\"2125\"}","_latitude":"42.31393138587134","_longitude":"-71.07529702758086","_needs_recoding":"false"},"__id":"150","__uuid":"BE4D4729-3F2C-40E0-B531-9707A1132817","__position":"150","__address":"http://data.cityofboston.gov/resource/_4vcu-nshu/150"},{"site":"Varied Dades Amy","address":"178 Bennington St","area":"East Boston","state":"MA","zip":"2128","map_location":{"_human_address":"{\"address\":\"178 Bennington St\",\"city\":\"East Boston\",\"state\":\"MA\",\"zip\":\"2128\"}","_latitude":"42.377306609276104","_longitude":"-71.03261520407028","_needs_recoding":"false"},"__id":"187","__uuid":"BE81DC48-6026-4903-9E82-0E079FC223AA","__position":"187","__address":"http://data.cityofboston.gov/resource/_4vcu-nshu/187"},{"site":"Bolster Service Inc","address":"81 Veterans Rd","area":"Winthrop","state":"MA","zip":"2152","map_location":{"_human_address":"{\"address\":\"81 Veterans Rd\",\"city\":\"Winthrop\",\"state\":\"MA\",\"zip\":\"2152\"}","_latitude":"42.380804971970065","_longitude":"-70.97576905859819","_needs_recoding":"false"},"__id":"246","__uuid":"BF6E86B6-4110-41D7-BF5E-87DF7B31BC49","__position":"246","__address":"http://data.cityofboston.gov/resource/_4vcu-nshu/246"},{"site":"Store 24","address":"1886 Dorchester Ave","area":"Dorchester Ctr","state":"MA","zip":"2124","map_location":{"_human_address":"{\"address\":\"1886 Dorchester Ave\",\"city\":\"Dorchester Ctr\",\"state\":\"MA\",\"zip\":\"2124\"}","_latitude":"42.286407837426154","_longitude":"-71.06400965932689","_needs_recoding":"false"},"__id":"172","__uuid":"C0A05362-886D-4A8B-84C5-31014432E829","__position":"172","__address":"http://data.cityofboston.gov/resource/_4vcu-nshu/172"},{"site":"Cumberland Farms","address":"148 Chestnut Hill Ave","area":"Brighton","state":"MA","zip":"2135","map_location":{"_human_address":"{\"address\":\"148 Chestnut Hill Ave\",\"city\":\"Brighton\",\"state\":\"MA\",\"zip\":\"2135\"}","_latitude":"42.342125131489865","_longitude":"-71.1541136102287","_needs_recoding":"false"},"__id":"112","__uuid":"C0F86152-08CB-4EE8-806A-5ED417A2949E","__position":"112","__address":"http://data.cityofboston.gov/resource/_4vcu-nshu/112"},{"site":"Tesoro Market","address":"188 Chelsea St","area":"East Boston","state":"MA","zip":"2128","map_location":{"_human_address":"{\"address\":\"188 Chelsea St\",\"city\":\"East Boston\",\"state\":\"MA\",\"zip\":\"2128\"}","_latitude":"42.37443893118786","_longitude":"-71.03358995670017","_needs_recoding":"false"},"__id":"184","__uuid":"C622AE34-8FB7-4181-9472-F49B35C3EAA9","__position":"184","__address":"http://data.cityofboston.gov/resource/_4vcu-nshu/184"},{"site":"Ashmont Convenience Store","address":"1996 Dorchester Ave","area":"Dorchester Ctr","state":"MA","zip":"2124","map_location":{"_human_address":"{\"address\":\"1996 Dorchester Ave\",\"city\":\"Dorchester Ctr\",\"state\":\"MA\",\"zip\":\"2124\"}","_latitude":"42.282615374622594","_longitude":"-71.06511594797291","_needs_recoding":"false"},"__id":"161","__uuid":"C69BEA4C-323F-41EE-9290-013DA3C80AAA","__position":"161","__address":"http://data.cityofboston.gov/resource/_4vcu-nshu/161"},{"site":"Charley Market","address":"604 Weld St","area":"West Roxbury","state":"MA","zip":"2132","map_location":{"_human_address":"{\"address\":\"604 Weld St\",\"city\":\"West Roxbury\",\"state\":\"MA\",\"zip\":\"2132\"}","_latitude":"42.29164618598526","_longitude":"-71.15780083054881","_needs_recoding":"false"},"__id":"242","__uuid":"C6A392E2-694E-483D-961A-64163584570D","__position":"242","__address":"http://data.cityofboston.gov/resource/_4vcu-nshu/242"},{"site":"7-Eleven","address":"2002 Beacon St","area":"Brighton","state":"MA","zip":"2135","map_location":{"_human_address":"{\"address\":\"2002 Beacon St\",\"city\":\"Brighton\",\"state\":\"MA\",\"zip\":\"2135\"}","_latitude":"42.33630080638474","_longitude":"-71.15075055747413","_needs_recoding":"false"},"__id":"108","__uuid":"C7C4FA02-BC21-4DC2-A25A-53529CF091FE","__position":"108","__address":"http://data.cityofboston.gov/resource/_4vcu-nshu/108"},{"site":"Columbia Rd. Market II","address":"387 Columbia Rd","area":"Dorchester","state":"MA","zip":"2125","map_location":{"_human_address":"{\"address\":\"387 Columbia Rd\",\"city\":\"Dorchester\",\"state\":\"MA\",\"zip\":\"2125\"}","_latitude":"42.31110628015811","_longitude":"-71.07022705430786","_needs_recoding":"false"},"__id":"135","__uuid":"C8A7CC4B-77FB-495A-9B31-80AAC06CED3F","__position":"135","__address":"http://data.cityofboston.gov/resource/_4vcu-nshu/135"},{"site":"Meli Mello Market","address":"542 Washington St","area":"Dorchester Ctr","state":"MA","zip":"2124","map_location":{"_human_address":"{\"address\":\"542 Washington St\",\"city\":\"Dorchester Ctr\",\"state\":\"MA\",\"zip\":\"2124\"}","_latitude":"42.29282429784365","_longitude":"-71.07178067844626","_needs_recoding":"false"},"__id":"167","__uuid":"CB037E3B-9490-41E2-A74D-AAD3CAE21B5C","__position":"167","__address":"http://data.cityofboston.gov/resource/_4vcu-nshu/167"},{"site":"Corner Store","address":"270 Hanover St","area":"Boston","state":"MA","zip":"2113","map_location":{"_human_address":"{\"address\":\"270 Hanover St\",\"city\":\"Boston\",\"state\":\"MA\",\"zip\":\"2113\"}","_latitude":"42.36376281951482","_longitude":"-71.05460362768667","_needs_recoding":"false"},"__id":"65","__uuid":"CD46F3D7-7CF6-4335-AACE-CB49F42BBDC4","__position":"65","__address":"http://data.cityofboston.gov/resource/_4vcu-nshu/65"},{"site":"Blue Hill Convenience","address":"137 Blue Hill Ave # B","area":"Roxbury","state":"MA","zip":"2119","map_location":{"_human_address":"{\"address\":\"137 Blue Hill Ave # B\",\"city\":\"Roxbury\",\"state\":\"MA\",\"zip\":\"2119\"}","_latitude":"42.32019966041554","_longitude":"-71.07781512926289","_needs_recoding":"false"},"__id":"217","__uuid":"CD5F28E2-F7A5-451B-9FA3-0D847689EFC2","__position":"217","__address":"http://data.cityofboston.gov/resource/_4vcu-nshu/217"},{"site":"Los Paisanos Market LLC","address":"11 Meridian St","area":"East Boston","state":"MA","zip":"2128","map_location":{"_human_address":"{\"address\":\"11 Meridian St\",\"city\":\"East Boston\",\"state\":\"MA\",\"zip\":\"2128\"}","_latitude":"42.37054370761575","_longitude":"-71.03891945149564","_needs_recoding":"false"},"__id":"179","__uuid":"D0430C7A-36BE-49B0-96A5-40072EE9A6D6","__position":"179","__address":"http://data.cityofboston.gov/resource/_4vcu-nshu/179"},{"site":"7-Eleven","address":"252 W Newton St # 1","area":"Boston","state":"MA","zip":"2116","map_location":{"_human_address":"{\"address\":\"252 W Newton St # 1\",\"city\":\"Boston\",\"state\":\"MA\",\"zip\":\"2116\"}","_latitude":"42.34483209079809","_longitude":"-71.0810347021278","_needs_recoding":"false"},"__id":"40","__uuid":"D068E736-E9E6-49A6-B66A-33217B4E9B90","__position":"40","__address":"http://data.cityofboston.gov/resource/_4vcu-nshu/40"},{"site":"Berkeley St. Market","address":"56 Berkeley St","area":"Boston","state":"MA","zip":"2116","map_location":{"_human_address":"{\"address\":\"56 Berkeley St\",\"city\":\"Boston\",\"state\":\"MA\",\"zip\":\"2116\"}","_latitude":"42.34647785011168","_longitude":"-71.07073746489232","_needs_recoding":"false"},"__id":"53","__uuid":"D0AE05FA-055F-4F76-A9CB-0FAC433CB823","__position":"53","__address":"http://data.cityofboston.gov/resource/_4vcu-nshu/53"},{"site":"7-Eleven","address":"722 Huntington Ave","area":"Boston","state":"MA","zip":"2115","map_location":{"_human_address":"{\"address\":\"722 Huntington Ave\",\"city\":\"Boston\",\"state\":\"MA\",\"zip\":\"2115\"}","_latitude":"42.334247070513186","_longitude":"-71.10439009522872","_needs_recoding":"false"},"__id":"39","__uuid":"D1365A89-303A-4DBA-AD4E-883B6E7DE9CD","__position":"39","__address":"http://data.cityofboston.gov/resource/_4vcu-nshu/39"},{"site":"7-Eleven","address":"1306 Washington St","area":"Boston","state":"MA","zip":"2118","map_location":{"_human_address":"{\"address\":\"1306 Washington St\",\"city\":\"Boston\",\"state\":\"MA\",\"zip\":\"2118\"}","_latitude":"42.34215211115077","_longitude":"-71.0679225869406","_needs_recoding":"false"},"__id":"44","__uuid":"D4013C90-C4FD-44C3-829D-740A9A2D92C4","__position":"44","__address":"http://data.cityofboston.gov/resource/_4vcu-nshu/44"},{"site":"Ramirez Grocery","address":"481 Geneva Avenue","area":"Dorchester","state":"MA","zip":"2122","map_location":{"_human_address":"{\"address\":\"481 Geneva Avenue\",\"city\":\"Dorchester\",\"state\":\"MA\",\"zip\":\"2122\"}","_latitude":"42.299392257759465","_longitude":"-71.06481870122053","_needs_recoding":"false"},"__id":"3","__uuid":"D8087EC2-68CA-4318-A0F4-30E7D025E526","__position":"3","__address":"http://data.cityofboston.gov/resource/_4vcu-nshu/3"},{"site":"Cappy's Convenience Store Inc","address":"949 Dorchester Ave","area":"Dorchester","state":"MA","zip":"2125","map_location":{"_human_address":"{\"address\":\"949 Dorchester Ave\",\"city\":\"Dorchester\",\"state\":\"MA\",\"zip\":\"2125\"}","_latitude":"42.31863484008454","_longitude":"-71.05677099377726","_needs_recoding":"false"},"__id":"133","__uuid":"D87D2E09-88EA-4AC4-8F1D-289AACE8B457","__position":"133","__address":"http://data.cityofboston.gov/resource/_4vcu-nshu/133"},{"site":"Quick Stop","address":"338 Warren St","area":"Roxbury","state":"MA","zip":"2119","map_location":{"_human_address":"{\"address\":\"338 Warren St\",\"city\":\"Roxbury\",\"state\":\"MA\",\"zip\":\"2119\"}","_latitude":"42.31924637906451","_longitude":"-71.0813944309395","_needs_recoding":"false"},"__id":"230","__uuid":"D8DE3D72-CD98-42C0-B759-B64968E2AEB3","__position":"230","__address":"http://data.cityofboston.gov/resource/_4vcu-nshu/230"},{"site":"Visham & Son","address":"449 Washington St","area":"Boston","state":"MA","zip":"2111","map_location":{"_human_address":"{\"address\":\"449 Washington St\",\"city\":\"Boston\",\"state\":\"MA\",\"zip\":\"2111\"}","_latitude":"42.355255233117646","_longitude":"-71.06068304460473","_needs_recoding":"false"},"__id":"104","__uuid":"D957BE69-DA1E-457F-80B1-D8006F5B958D","__position":"104","__address":"http://data.cityofboston.gov/resource/_4vcu-nshu/104"},{"site":"Tedeschi Food Shops","address":"1239 River St","area":"Hyde Park","state":"MA","zip":"2136","map_location":{"_human_address":"{\"address\":\"1239 River St\",\"city\":\"Hyde Park\",\"state\":\"MA\",\"zip\":\"2136\"}","_latitude":"42.255943101422076","_longitude":"-71.12321290530195","_needs_recoding":"false"},"__id":"195","__uuid":"D97AD7F4-38C9-467D-90FD-460BDFA24049","__position":"195","__address":"http://data.cityofboston.gov/resource/_4vcu-nshu/195"},{"site":"Store 24","address":"405 W BRd.way","area":"South Boston","state":"MA","zip":"2127","map_location":{"_human_address":"{\"address\":\"405 W BRd.way\",\"city\":\"South Boston\",\"state\":\"MA\",\"zip\":\"2127\"}","_latitude":"42.337950000092576","_longitude":"-71.04948000030163","_needs_recoding":"false"},"__id":"238","__uuid":"DA2797D5-DE8A-4734-B987-89FC8CC1D98C","__position":"238","__address":"http://data.cityofboston.gov/resource/_4vcu-nshu/238"},{"site":"El Condor Market","address":"337 Paris St","area":"East Boston","state":"MA","zip":"2128","map_location":{"_human_address":"{\"address\":\"337 Paris St\",\"city\":\"East Boston\",\"state\":\"MA\",\"zip\":\"2128\"}","_latitude":"42.377576405884895","_longitude":"-71.0316619227192","_needs_recoding":"false"},"__id":"177","__uuid":"DC65E570-B6E9-4B17-8F59-04FBA8099537","__position":"177","__address":"http://data.cityofboston.gov/resource/_4vcu-nshu/177"},{"site":"Christy's Markets Inc","address":"508 Park Dr","area":"Boston","state":"MA","zip":"2215","map_location":{"_human_address":"{\"address\":\"508 Park Dr\",\"city\":\"Boston\",\"state\":\"MA\",\"zip\":\"2215\"}","_latitude":"42.347555753891584","_longitude":"-71.1056310775135","_needs_recoding":"false"},"__id":"61","__uuid":"DDC13FC3-E7D5-4A93-9E21-8C82C68CBD00","__position":"61","__address":"http://data.cityofboston.gov/resource/_4vcu-nshu/61"},{"site":"Snack N' Play","address":"19 Staniford St","area":"Boston","state":"MA","zip":"2114","map_location":{"_human_address":"{\"address\":\"19 Staniford St\",\"city\":\"Boston\",\"state\":\"MA\",\"zip\":\"2114\"}","_latitude":"42.36191730464997","_longitude":"-71.06374745507058","_needs_recoding":"false"},"__id":"93","__uuid":"DDFF1268-53FE-442E-8C70-CCA4AD162123","__position":"93","__address":"http://data.cityofboston.gov/resource/_4vcu-nshu/93"},{"site":"Gulf","address":"1420 Boylston St","area":"Boston","state":"MA","zip":"2215","map_location":{"_human_address":"{\"address\":\"1420 Boylston St\",\"city\":\"Boston\",\"state\":\"MA\",\"zip\":\"2215\"}","_latitude":"42.34331182725526","_longitude":"-71.10223297417795","_needs_recoding":"false"},"__id":"77","__uuid":"DEC441C4-9706-4923-B848-57B32062DD34","__position":"77","__address":"http://data.cityofboston.gov/resource/_4vcu-nshu/77"},{"site":"Riddhi Corp","address":"171 Wolcott Sq","area":"Hyde Park","state":"MA","zip":"2136","map_location":{"_human_address":"{\"address\":\"171 Wolcott Sq\",\"city\":\"Hyde Park\",\"state\":\"MA\",\"zip\":\"2136\"}","_latitude":"42.23719587516264","_longitude":"-71.13202130726548","_needs_recoding":"false"},"__id":"192","__uuid":"E08DFD17-B69C-4952-B40A-5FCC975DAE04","__position":"192","__address":"http://data.cityofboston.gov/resource/_4vcu-nshu/192"},{"site":"Store 24","address":"1912 Beacon St","area":"Brighton","state":"MA","zip":"2135","map_location":{"_human_address":"{\"address\":\"1912 Beacon St\",\"city\":\"Brighton\",\"state\":\"MA\",\"zip\":\"2135\"}","_latitude":"42.33650018595136","_longitude":"-71.14871569824254","_needs_recoding":"false"},"__id":"118","__uuid":"E0EEE64C-DD93-4FBA-B741-E29363274365","__position":"118","__address":"http://data.cityofboston.gov/resource/_4vcu-nshu/118"},{"site":"Cumberland Farms","address":"628 E 5th St","area":"South Boston","state":"MA","zip":"2127","map_location":{"_human_address":"{\"address\":\"628 E 5th St\",\"city\":\"South Boston\",\"state\":\"MA\",\"zip\":\"2127\"}","_latitude":"42.333986267124715","_longitude":"-71.0355110210046","_needs_recoding":"false"},"__id":"234","__uuid":"E1CD87D5-13CF-4C34-9F2A-FBBAA9104A44","__position":"234","__address":"http://data.cityofboston.gov/resource/_4vcu-nshu/234"},{"site":"First Tennessee Capital Mrkts","address":"99 Summer St","area":"Boston","state":"MA","zip":"2110","map_location":{"_human_address":"{\"address\":\"99 Summer St\",\"city\":\"Boston\",\"state\":\"MA\",\"zip\":\"2110\"}","_latitude":"42.3537983314302","_longitude":"-71.05823688868503","_needs_recoding":"false"},"__id":"73","__uuid":"E2977207-8DD3-47C7-AB28-543E33D3B858","__position":"73","__address":"http://data.cityofboston.gov/resource/_4vcu-nshu/73"},{"site":"D & R Supermarkets","address":"180 Hyde Park Ave","area":"Jamaica Plain","state":"MA","zip":"2130","map_location":{"_human_address":"{\"address\":\"180 Hyde Park Ave\",\"city\":\"Jamaica Plain\",\"state\":\"MA\",\"zip\":\"2130\"}","_latitude":"42.29467690122402","_longitude":"-71.11695362397802","_needs_recoding":"false"},"__id":"198","__uuid":"E315B148-675D-4B70-963B-43BC2A92D324","__position":"198","__address":"http://data.cityofboston.gov/resource/_4vcu-nshu/198"},{"site":"Market Maywood","address":"249 Blue Hill Ave","area":"Roxbury","state":"MA","zip":"2119","map_location":{"_human_address":"{\"address\":\"249 Blue Hill Ave\",\"city\":\"Roxbury\",\"state\":\"MA\",\"zip\":\"2119\"}","_latitude":"42.31609875196193","_longitude":"-71.07823781061666","_needs_recoding":"false"},"__id":"225","__uuid":"E4D0845F-321A-478C-90B8-D1476A36F1F5","__position":"225","__address":"http://data.cityofboston.gov/resource/_4vcu-nshu/225"},{"site":"Giovanni's Market","address":"624 Columbus Ave","area":"Roxbury","state":"MA","zip":"2118","map_location":{"_human_address":"{\"address\":\"624 Columbus Ave\",\"city\":\"Roxbury\",\"state\":\"MA\",\"zip\":\"2118\"}","_latitude":"42.339295494795365","_longitude":"-71.08322926745511","_needs_recoding":"false"},"__id":"223","__uuid":"E53B7227-EC0F-40ED-8F1A-96E66E5C1A75","__position":"223","__address":"http://data.cityofboston.gov/resource/_4vcu-nshu/223"},{"site":"Vange Variety","address":"434 Blue Hill Ave","area":"Dorchester","state":"MA","zip":"2121","map_location":{"_human_address":"{\"address\":\"434 Blue Hill Ave\",\"city\":\"Dorchester\",\"state\":\"MA\",\"zip\":\"2121\"}","_latitude":"42.31017221978885","_longitude":"-71.08202395635999","_needs_recoding":"false"},"__id":"159","__uuid":"E632C8AA-63FB-490D-9A77-E5DF8D1CAB0B","__position":"159","__address":"http://data.cityofboston.gov/resource/_4vcu-nshu/159"},{"site":"Dominican Grocery Store","address":"710 Washington St","area":"Dorchester Ctr","state":"MA","zip":"2124","map_location":{"_human_address":"{\"address\":\"710 Washington St\",\"city\":\"Dorchester Ctr\",\"state\":\"MA\",\"zip\":\"2124\"}","_latitude":"42.28666394194295","_longitude":"-71.07115115302577","_needs_recoding":"false"},"__id":"164","__uuid":"E6407215-9674-448E-8E24-8417A80CBB30","__position":"164","__address":"http://data.cityofboston.gov/resource/_4vcu-nshu/164"},{"site":"Speedy Market","address":"4899 Washington St","area":"West Roxbury","state":"MA","zip":"2132","map_location":{"_human_address":"{\"address\":\"4899 Washington St\",\"city\":\"West Roxbury\",\"state\":\"MA\",\"zip\":\"2132\"}","_latitude":"42.269307409207606","_longitude":"-71.1483792159798","_needs_recoding":"false"},"__id":"243","__uuid":"E6B1BCE1-F7BD-49B0-A5A5-93978E90288B","__position":"243","__address":"http://data.cityofboston.gov/resource/_4vcu-nshu/243"},{"site":"Chansky Super Market","address":"161 Sutherland Rd","area":"Brighton","state":"MA","zip":"2135","map_location":{"_human_address":"{\"address\":\"161 Sutherland Rd\",\"city\":\"Brighton\",\"state\":\"MA\",\"zip\":\"2135\"}","_latitude":"42.3408351640262","_longitude":"-71.147243500566","_needs_recoding":"false"},"__id":"111","__uuid":"E8B6DB5E-3763-4B2E-B600-DF80F441AF94","__position":"111","__address":"http://data.cityofboston.gov/resource/_4vcu-nshu/111"},{"site":"Bohio Grocery & Snacks","address":"718 Shawmut Ave","area":"Roxbury","state":"MA","zip":"2119","map_location":{"_human_address":"{\"address\":\"718 Shawmut Ave\",\"city\":\"Roxbury\",\"state\":\"MA\",\"zip\":\"2119\"}","_latitude":"42.33305996543453","_longitude":"-71.08314810889664","_needs_recoding":"false"},"__id":"218","__uuid":"E8E9F925-4D00-406F-833B-B4808878FD59","__position":"218","__address":"http://data.cityofboston.gov/resource/_4vcu-nshu/218"},{"site":"Perez Severiano","address":"207 Boylston St","area":"Jamaica Plain","state":"MA","zip":"2130","map_location":{"_human_address":"{\"address\":\"207 Boylston St\",\"city\":\"Jamaica Plain\",\"state\":\"MA\",\"zip\":\"2130\"}","_latitude":"42.31393138587134","_longitude":"-71.1011885088044","_needs_recoding":"false"},"__id":"202","__uuid":"E9901DD4-C9CD-44CC-A228-C8E6129ED235","__position":"202","__address":"http://data.cityofboston.gov/resource/_4vcu-nshu/202"},{"site":"Two Brothers Market","address":"75 Marion St","area":"East Boston","state":"MA","zip":"2128","map_location":{"_human_address":"{\"address\":\"75 Marion St\",\"city\":\"East Boston\",\"state\":\"MA\",\"zip\":\"2128\"}","_latitude":"42.37840378215185","_longitude":"-71.03748053624878","_needs_recoding":"false"},"__id":"9","__uuid":"EA97B75F-B3DD-46E6-91F9-01DBA4A511AD","__position":"9","__address":"http://data.cityofboston.gov/resource/_4vcu-nshu/9"},